interval:200
data
$GPGGA,172947.164,4759.212,N,08150.909,W,1,12,1.0,0.0,M,0.0,M,,*73
$GPRMC,172947.164,A,4759.212,N,08150.909,W,000.0,000.0,211125,000.0,W*63
$GPGGA,172947.464,4759.212,N,08150.909,W,1,12,1.0,0.0,M,0.0,M,,*76
$GPRMC,172947.464,A,4759.212,N,08150.909,W,000.0,000.0,211125,000.0,W*66
$GPGGA,172947.764,4759.212,N,08150.909,W,1,12,1.0,0.0,M,0.0,M,,*75
$GPRMC,172947.764,A,4759.212,N,08150.909,W,000.0,000.0,211125,000.0,W*65
$GPGGA,172948.064,4759.212,N,08150.909,W,1,12,1.0,0.0,M,0.0,M,,*7D
$GPRMC,172948.064,A,4759.212,N,08150.909,W,000.0,000.0,211125,000.0,W*6D
$GPGGA,172948.364,4759.212,N,08150.909,W,1,12,1.0,0.0,M,0.0,M,,*7E
$GPRMC,172948.364,A,4759.212,N,08150.909,W,000.0,000.0,211125,000.0,W*6E
$GPGGA,172948.664,4759.212,N,08150.909,W,1,12,1.0,0.0,M,0.0,M,,*7B
$GPRMC,172948.664,A,4759.212,N,08150.909,W,000.0,000.0,211125,000.0,W*6B
$GPGGA,172948.964,4759.212,N,08150.909,W,1,12,1.0,0.0,M,0.0,M,,*74
$GPRMC,172948.964,A,4759.212,N,08150.909,W,000.0,000.0,211125,000.0,W*64
$GPGGA,172949.264,4759.212,N,08150.909,W,1,12,1.0,0.0,M,0.0,M,,*7E
$GPRMC,172949.264,A,4759.212,N,08150.909,W,000.0,000.0,211125,000.0,W*6E
$GPGGA,172949.564,4759.212,N,08150.909,W,1,12,1.0,0.0,M,0.0,M,,*79
$GPRMC,172949.564,A,4759.212,N,08150.909,W,000.0,000.0,211125,000.0,W*69
$GPGGA,172949.864,4759.212,N,08150.909,W,1,12,1.0,0.0,M,0.0,M,,*74
$GPRMC,172949.864,A,4759.212,N,08150.909,W,000.0,000.0,211125,000.0,W*64
$GPGGA,172950.164,4759.212,N,08150.909,W,1,12,1.0,0.0,M,0.0,M,,*75
$GPRMC,172950.164,A,4759.212,N,08150.909,W,000.0,000.0,211125,000.0,W*65
$GPGGA,172950.464,4759.212,N,08150.909,W,1,12,1.0,0.0,M,0.0,M,,*70
$GPRMC,172950.464,A,4759.212,N,08150.909,W,000.0,000.0,211125,000.0,W*60
$GPGGA,172950.764,4759.212,N,08150.909,W,1,12,1.0,0.0,M,0.0,M,,*73
$GPRMC,172950.764,A,4759.212,N,08150.909,W,000.0,000.0,211125,000.0,W*63
$GPGGA,172951.064,4759.212,N,08150.909,W,1,12,1.0,0.0,M,0.0,M,,*75
$GPRMC,172951.064,A,4759.212,N,08150.909,W,000.0,000.0,211125,000.0,W*65
$GPGGA,172951.364,4759.212,N,08150.909,W,1,12,1.0,0.0,M,0.0,M,,*76
$GPRMC,172951.364,A,4759.212,N,08150.909,W,000.0,000.0,211125,000.0,W*66
$GPGGA,172951.664,4759.212,N,08150.909,W,1,12,1.0,0.0,M,0.0,M,,*73
$GPRMC,172951.664,A,4759.212,N,08150.909,W,000.0,000.0,211125,000.0,W*63
$GPGGA,172951.964,4759.212,N,08150.909,W,1,12,1.0,0.0,M,0.0,M,,*7C
$GPRMC,172951.964,A,4759.212,N,08150.909,W,000.0,000.0,211125,000.0,W*6C
$GPGGA,172952.264,4759.212,N,08150.909,W,1,12,1.0,0.0,M,0.0,M,,*74
$GPRMC,172952.264,A,4759.212,N,08150.909,W,000.0,000.0,211125,000.0,W*64
$GPGGA,172952.564,4759.212,N,08150.909,W,1,12,1.0,0.0,M,0.0,M,,*73
$GPRMC,172952.564,A,4759.212,N,08150.909,W,000.0,000.0,211125,000.0,W*63
$GPGGA,172952.864,4759.212,N,08150.909,W,1,12,1.0,0.0,M,0.0,M,,*7E
$GPRMC,172952.864,A,4759.212,N,08150.909,W,000.0,000.0,211125,000.0,W*6E
$GPGGA,172953.164,4759.212,N,08150.909,W,1,12,1.0,0.0,M,0.0,M,,*76
$GPRMC,172953.164,A,4759.212,N,08150.909,W,000.0,000.0,211125,000.0,W*66
$GPGGA,172953.464,4759.212,N,08150.909,W,1,12,1.0,0.0,M,0.0,M,,*73
$GPRMC,172953.464,A,4759.212,N,08150.909,W,000.0,000.0,211125,000.0,W*63
$GPGGA,172953.764,4759.212,N,08150.909,W,1,12,1.0,0.0,M,0.0,M,,*70
$GPRMC,172953.764,A,4759.212,N,08150.909,W,000.0,000.0,211125,000.0,W*60
$GPGGA,172954.064,4759.212,N,08150.909,W,1,12,1.0,0.0,M,0.0,M,,*70
$GPRMC,172954.064,A,4759.212,N,08150.909,W,000.0,000.0,211125,000.0,W*60
$GPGGA,172954.364,4759.212,N,08150.909,W,1,12,1.0,0.0,M,0.0,M,,*73
$GPRMC,172954.364,A,4759.212,N,08150.909,W,000.0,000.0,211125,000.0,W*63
$GPGGA,172954.664,4759.212,N,08150.909,W,1,12,1.0,0.0,M,0.0,M,,*76
$GPRMC,172954.664,A,4759.212,N,08150.909,W,000.0,000.0,211125,000.0,W*66
$GPGGA,172954.964,4759.212,N,08150.909,W,1,12,1.0,0.0,M,0.0,M,,*79
$GPRMC,172954.964,A,4759.212,N,08150.909,W,000.0,000.0,211125,000.0,W*69
$GPGGA,172955.264,4759.212,N,08150.909,W,1,12,1.0,0.0,M,0.0,M,,*73
$GPRMC,172955.264,A,4759.212,N,08150.909,W,000.0,000.0,211125,000.0,W*63
$GPGGA,172955.564,4759.212,N,08150.909,W,1,12,1.0,0.0,M,0.0,M,,*74
$GPRMC,172955.564,A,4759.212,N,08150.909,W,000.0,000.0,211125,000.0,W*64
$GPGGA,172955.864,4759.212,N,08150.909,W,1,12,1.0,0.0,M,0.0,M,,*79
$GPRMC,172955.864,A,4759.212,N,08150.909,W,000.0,000.0,211125,000.0,W*69
$GPGGA,172956.164,4759.212,N,08150.909,W,1,12,1.0,0.0,M,0.0,M,,*73
$GPRMC,172956.164,A,4759.212,N,08150.909,W,000.0,000.0,211125,000.0,W*63
$GPGGA,172956.464,4759.212,N,08150.909,W,1,12,1.0,0.0,M,0.0,M,,*76
$GPRMC,172956.464,A,4759.212,N,08150.909,W,000.0,000.0,211125,000.0,W*66
$GPGGA,172956.764,4759.212,N,08150.909,W,1,12,1.0,0.0,M,0.0,M,,*75
$GPRMC,172956.764,A,4759.212,N,08150.909,W,000.0,000.0,211125,000.0,W*65
$GPGGA,172957.064,4759.212,N,08150.909,W,1,12,1.0,0.0,M,0.0,M,,*73
$GPRMC,172957.064,A,4759.212,N,08150.909,W,000.0,000.0,211125,000.0,W*63
$GPGGA,172957.364,4759.212,N,08150.909,W,1,12,1.0,0.0,M,0.0,M,,*70
$GPRMC,172957.364,A,4759.212,N,08150.909,W,000.0,000.0,211125,000.0,W*60
$GPGGA,172957.664,4759.212,N,08150.909,W,1,12,1.0,0.0,M,0.0,M,,*75
$GPRMC,172957.664,A,4759.212,N,08150.909,W,000.0,000.0,211125,000.0,W*65
$GPGGA,172957.964,4759.212,N,08150.909,W,1,12,1.0,0.0,M,0.0,M,,*7A
$GPRMC,172957.964,A,4759.212,N,08150.909,W,000.0,000.0,211125,000.0,W*6A
$GPGGA,172958.264,4759.212,N,08150.909,W,1,12,1.0,0.0,M,0.0,M,,*7E
$GPRMC,172958.264,A,4759.212,N,08150.909,W,000.0,000.0,211125,000.0,W*6E
$GPGGA,172958.564,4759.212,N,08150.909,W,1,12,1.0,0.0,M,0.0,M,,*79
$GPRMC,172958.564,A,4759.212,N,08150.909,W,000.0,000.0,211125,000.0,W*69
$GPGGA,172958.864,4759.212,N,08150.909,W,1,12,1.0,0.0,M,0.0,M,,*74
$GPRMC,172958.864,A,4759.212,N,08150.909,W,000.0,000.0,211125,000.0,W*64
$GPGGA,172959.164,4759.212,N,08150.909,W,1,12,1.0,0.0,M,0.0,M,,*7C
$GPRMC,172959.164,A,4759.212,N,08150.909,W,000.0,000.0,211125,000.0,W*6C
$GPGGA,172959.464,4759.212,N,08150.909,W,1,12,1.0,0.0,M,0.0,M,,*79
$GPRMC,172959.464,A,4759.212,N,08150.909,W,000.0,000.0,211125,000.0,W*69
$GPGGA,172959.764,4759.212,N,08150.909,W,1,12,1.0,0.0,M,0.0,M,,*7A
$GPRMC,172959.764,A,4759.212,N,08150.909,W,000.0,000.0,211125,000.0,W*6A
$GPGGA,173000.064,4759.212,N,08150.909,W,1,12,1.0,0.0,M,0.0,M,,*79
$GPRMC,173000.064,A,4759.212,N,08150.909,W,000.0,000.0,211125,000.0,W*69
$GPGGA,173000.364,4759.212,N,08150.909,W,1,12,1.0,0.0,M,0.0,M,,*7A
$GPRMC,173000.364,A,4759.212,N,08150.909,W,000.0,000.0,211125,000.0,W*6A
$GPGGA,173000.664,4759.212,N,08150.909,W,1,12,1.0,0.0,M,0.0,M,,*7F
$GPRMC,173000.664,A,4759.212,N,08150.909,W,000.0,000.0,211125,000.0,W*6F
$GPGGA,173000.964,4759.212,N,08150.909,W,1,12,1.0,0.0,M,0.0,M,,*70
$GPRMC,173000.964,A,4759.212,N,08150.909,W,000.0,000.0,211125,000.0,W*60
$GPGGA,173001.264,4759.212,N,08150.909,W,1,12,1.0,0.0,M,0.0,M,,*7A
$GPRMC,173001.264,A,4759.212,N,08150.909,W,000.0,000.0,211125,000.0,W*6A
$GPGGA,173001.564,4759.212,N,08150.909,W,1,12,1.0,0.0,M,0.0,M,,*7D
$GPRMC,173001.564,A,4759.212,N,08150.909,W,000.0,000.0,211125,000.0,W*6D
$GPGGA,173001.864,4759.212,N,08150.909,W,1,12,1.0,0.0,M,0.0,M,,*70
$GPRMC,173001.864,A,4759.212,N,08150.909,W,000.0,000.0,211125,000.0,W*60
$GPGGA,173002.164,4759.212,N,08150.909,W,1,12,1.0,0.0,M,0.0,M,,*7A
$GPRMC,173002.164,A,4759.212,N,08150.909,W,000.0,000.0,211125,000.0,W*6A
$GPGGA,173002.464,4759.212,N,08150.909,W,1,12,1.0,0.0,M,0.0,M,,*7F
$GPRMC,173002.464,A,4759.212,N,08150.909,W,000.0,000.0,211125,000.0,W*6F
$GPGGA,173002.764,4759.212,N,08150.909,W,1,12,1.0,0.0,M,0.0,M,,*7C
$GPRMC,173002.764,A,4759.212,N,08150.909,W,000.0,000.0,211125,000.0,W*6C
$GPGGA,173003.064,4759.212,N,08150.909,W,1,12,1.0,0.0,M,0.0,M,,*7A
$GPRMC,173003.064,A,4759.212,N,08150.909,W,000.0,000.0,211125,000.0,W*6A
$GPGGA,173003.364,4759.212,N,08150.909,W,1,12,1.0,0.0,M,0.0,M,,*79
$GPRMC,173003.364,A,4759.212,N,08150.909,W,000.0,000.0,211125,000.0,W*69
$GPGGA,173003.664,4759.212,N,08150.909,W,1,12,1.0,0.0,M,0.0,M,,*7C
$GPRMC,173003.664,A,4759.212,N,08150.909,W,000.0,000.0,211125,000.0,W*6C
$GPGGA,173003.964,4759.212,N,08150.909,W,1,12,1.0,0.0,M,0.0,M,,*73
$GPRMC,173003.964,A,4759.212,N,08150.909,W,000.0,000.0,211125,000.0,W*63
$GPGGA,173004.264,4759.212,N,08150.909,W,1,12,1.0,0.0,M,0.0,M,,*7F
$GPRMC,173004.264,A,4759.212,N,08150.909,W,000.0,000.0,211125,000.0,W*6F
$GPGGA,173004.564,4759.212,N,08150.909,W,1,12,1.0,0.0,M,0.0,M,,*78
$GPRMC,173004.564,A,4759.212,N,08150.909,W,000.0,000.0,211125,000.0,W*68
$GPGGA,173004.864,4759.212,N,08150.909,W,1,12,1.0,0.0,M,0.0,M,,*75
$GPRMC,173004.864,A,4759.212,N,08150.909,W,000.0,000.0,211125,000.0,W*65
$GPGGA,173005.164,4759.212,N,08150.909,W,1,12,1.0,0.0,M,0.0,M,,*7D
$GPRMC,173005.164,A,4759.212,N,08150.909,W,000.0,000.0,211125,000.0,W*6D
$GPGGA,173005.464,4759.212,N,08150.909,W,1,12,1.0,0.0,M,0.0,M,,*78
$GPRMC,173005.464,A,4759.212,N,08150.909,W,000.0,000.0,211125,000.0,W*68
$GPGGA,173005.764,4759.212,N,08150.909,W,1,12,1.0,0.0,M,0.0,M,,*7B
$GPRMC,173005.764,A,4759.212,N,08150.909,W,000.0,000.0,211125,000.0,W*6B
$GPGGA,173006.064,4759.212,N,08150.909,W,1,12,1.0,0.0,M,0.0,M,,*7F
$GPRMC,173006.064,A,4759.212,N,08150.909,W,000.0,000.0,211125,000.0,W*6F
$GPGGA,173006.364,4759.212,N,08150.909,W,1,12,1.0,0.0,M,0.0,M,,*7C
$GPRMC,173006.364,A,4759.212,N,08150.909,W,000.0,000.0,211125,000.0,W*6C
$GPGGA,173006.664,4759.212,N,08150.909,W,1,12,1.0,0.0,M,0.0,M,,*79
$GPRMC,173006.664,A,4759.212,N,08150.909,W,000.0,000.0,211125,000.0,W*69
$GPGGA,173006.964,4759.212,N,08150.909,W,1,12,1.0,0.0,M,0.0,M,,*76
$GPRMC,173006.964,A,4759.212,N,08150.909,W,000.0,000.0,211125,000.0,W*66
$GPGGA,173007.264,4759.212,N,08150.909,W,1,12,1.0,0.0,M,0.0,M,,*7C
$GPRMC,173007.264,A,4759.212,N,08150.909,W,000.0,000.0,211125,000.0,W*6C
$GPGGA,173007.564,4759.212,N,08150.909,W,1,12,1.0,0.0,M,0.0,M,,*7B
$GPRMC,173007.564,A,4759.212,N,08150.909,W,000.0,000.0,211125,000.0,W*6B
$GPGGA,173007.864,4759.212,N,08150.909,W,1,12,1.0,0.0,M,0.0,M,,*76
$GPRMC,173007.864,A,4759.212,N,08150.909,W,000.0,000.0,211125,000.0,W*66
$GPGGA,173008.164,4759.212,N,08150.909,W,1,12,1.0,0.0,M,0.0,M,,*70
$GPRMC,173008.164,A,4759.212,N,08150.909,W,000.0,000.0,211125,000.0,W*60
$GPGGA,173008.464,4759.212,N,08150.909,W,1,12,1.0,0.0,M,0.0,M,,*75
$GPRMC,173008.464,A,4759.212,N,08150.909,W,000.0,000.0,211125,000.0,W*65
$GPGGA,173008.764,4759.212,N,08150.909,W,1,12,1.0,0.0,M,0.0,M,,*76
$GPRMC,173008.764,A,4759.212,N,08150.909,W,000.0,000.0,211125,000.0,W*66
$GPGGA,173009.064,4759.212,N,08150.909,W,1,12,1.0,0.0,M,0.0,M,,*70
$GPRMC,173009.064,A,4759.212,N,08150.909,W,000.0,000.0,211125,000.0,W*60
$GPGGA,173009.364,4759.212,N,08150.909,W,1,12,1.0,0.0,M,0.0,M,,*73
$GPRMC,173009.364,A,4759.212,N,08150.909,W,000.0,000.0,211125,000.0,W*63
$GPGGA,173009.664,4759.212,N,08150.909,W,1,12,1.0,0.0,M,0.0,M,,*76
$GPRMC,173009.664,A,4759.212,N,08150.909,W,000.0,000.0,211125,000.0,W*66
$GPGGA,173009.964,4759.212,N,08150.909,W,1,12,1.0,0.0,M,0.0,M,,*79
$GPRMC,173009.964,A,4759.212,N,08150.909,W,000.0,000.0,211125,000.0,W*69
$GPGGA,173010.264,4759.212,N,08150.909,W,1,12,1.0,0.0,M,0.0,M,,*7A
$GPRMC,173010.264,A,4759.212,N,08150.909,W,000.0,000.0,211125,000.0,W*6A
$GPGGA,173010.564,4759.212,N,08150.909,W,1,12,1.0,0.0,M,0.0,M,,*7D
$GPRMC,173010.564,A,4759.212,N,08150.909,W,000.0,000.0,211125,000.0,W*6D
$GPGGA,173010.864,4759.212,N,08150.909,W,1,12,1.0,0.0,M,0.0,M,,*70
$GPRMC,173010.864,A,4759.212,N,08150.909,W,000.0,000.0,211125,000.0,W*60
$GPGGA,173011.164,4759.212,N,08150.909,W,1,12,1.0,0.0,M,0.0,M,,*78
$GPRMC,173011.164,A,4759.212,N,08150.909,W,000.0,000.0,211125,000.0,W*68
$GPGGA,173011.464,4759.212,N,08150.909,W,1,12,1.0,0.0,M,0.0,M,,*7D
$GPRMC,173011.464,A,4759.212,N,08150.909,W,000.0,000.0,211125,000.0,W*6D
$GPGGA,173011.764,4759.212,N,08150.909,W,1,12,1.0,0.0,M,0.0,M,,*7E
$GPRMC,173011.764,A,4759.212,N,08150.909,W,000.0,000.0,211125,000.0,W*6E
$GPGGA,173012.064,4759.212,N,08150.909,W,1,12,1.0,0.0,M,0.0,M,,*7A
$GPRMC,173012.064,A,4759.212,N,08150.909,W,000.0,000.0,211125,000.0,W*6A
$GPGGA,173012.364,4759.212,N,08150.909,W,1,12,1.0,0.0,M,0.0,M,,*79
$GPRMC,173012.364,A,4759.212,N,08150.909,W,000.0,000.0,211125,000.0,W*69
$GPGGA,173012.664,4759.212,N,08150.909,W,1,12,1.0,0.0,M,0.0,M,,*7C
$GPRMC,173012.664,A,4759.212,N,08150.909,W,000.0,000.0,211125,000.0,W*6C
$GPGGA,173012.964,4759.212,N,08150.909,W,1,12,1.0,0.0,M,0.0,M,,*73
$GPRMC,173012.964,A,4759.212,N,08150.909,W,000.0,000.0,211125,000.0,W*63
$GPGGA,173013.264,4759.212,N,08150.909,W,1,12,1.0,0.0,M,0.0,M,,*79
$GPRMC,173013.264,A,4759.212,N,08150.909,W,000.0,000.0,211125,000.0,W*69
$GPGGA,173013.564,4759.212,N,08150.909,W,1,12,1.0,0.0,M,0.0,M,,*7E
$GPRMC,173013.564,A,4759.212,N,08150.909,W,000.0,000.0,211125,000.0,W*6E
$GPGGA,173013.864,4759.212,N,08150.909,W,1,12,1.0,0.0,M,0.0,M,,*73
$GPRMC,173013.864,A,4759.212,N,08150.909,W,000.0,000.0,211125,000.0,W*63
$GPGGA,173014.164,4759.212,N,08150.909,W,1,12,1.0,0.0,M,0.0,M,,*7D
$GPRMC,173014.164,A,4759.212,N,08150.909,W,000.0,000.0,211125,000.0,W*6D
$GPGGA,173014.464,4759.212,N,08150.909,W,1,12,1.0,0.0,M,0.0,M,,*78
$GPRMC,173014.464,A,4759.212,N,08150.909,W,000.0,000.0,211125,000.0,W*68
$GPGGA,173014.764,4759.212,N,08150.909,W,1,12,1.0,0.0,M,0.0,M,,*7B
$GPRMC,173014.764,A,4759.212,N,08150.909,W,000.0,000.0,211125,000.0,W*6B
$GPGGA,173015.064,4759.212,N,08150.909,W,1,12,1.0,0.0,M,0.0,M,,*7D
$GPRMC,173015.064,A,4759.212,N,08150.909,W,000.0,000.0,211125,000.0,W*6D
$GPGGA,173015.364,4759.212,N,08150.909,W,1,12,1.0,0.0,M,0.0,M,,*7E
$GPRMC,173015.364,A,4759.212,N,08150.909,W,000.0,000.0,211125,000.0,W*6E
$GPGGA,173015.664,4759.212,N,08150.909,W,1,12,1.0,0.0,M,0.0,M,,*7B
$GPRMC,173015.664,A,4759.212,N,08150.909,W,000.0,000.0,211125,000.0,W*6B
$GPGGA,173015.964,4759.212,N,08150.909,W,1,12,1.0,0.0,M,0.0,M,,*74
$GPRMC,173015.964,A,4759.212,N,08150.909,W,000.0,000.0,211125,000.0,W*64
$GPGGA,173016.264,4759.212,N,08150.909,W,1,12,1.0,0.0,M,0.0,M,,*7C
$GPRMC,173016.264,A,4759.212,N,08150.909,W,000.0,000.0,211125,000.0,W*6C
$GPGGA,173016.564,4759.212,N,08150.909,W,1,12,1.0,0.0,M,0.0,M,,*7B
$GPRMC,173016.564,A,4759.212,N,08150.909,W,000.0,000.0,211125,000.0,W*6B
$GPGGA,173016.864,4759.212,N,08150.909,W,1,12,1.0,0.0,M,0.0,M,,*76
$GPRMC,173016.864,A,4759.212,N,08150.909,W,000.0,000.0,211125,000.0,W*66
$GPGGA,173017.164,4759.212,N,08150.909,W,1,12,1.0,0.0,M,0.0,M,,*7E
$GPRMC,173017.164,A,4759.212,N,08150.909,W,000.0,000.0,211125,000.0,W*6E
$GPGGA,173017.464,4759.212,N,08150.909,W,1,12,1.0,0.0,M,0.0,M,,*7B
$GPRMC,173017.464,A,4759.212,N,08150.909,W,000.0,000.0,211125,000.0,W*6B
$GPGGA,173017.764,4759.212,N,08150.909,W,1,12,1.0,0.0,M,0.0,M,,*78
$GPRMC,173017.764,A,4759.212,N,08150.909,W,000.0,000.0,211125,000.0,W*68
$GPGGA,173018.064,4759.212,N,08150.909,W,1,12,1.0,0.0,M,0.0,M,,*70
$GPRMC,173018.064,A,4759.212,N,08150.909,W,000.0,000.0,211125,000.0,W*60
$GPGGA,173018.364,4759.212,N,08150.909,W,1,12,1.0,0.0,M,0.0,M,,*73
$GPRMC,173018.364,A,4759.212,N,08150.909,W,000.0,000.0,211125,000.0,W*63
$GPGGA,173018.664,4759.212,N,08150.909,W,1,12,1.0,0.0,M,0.0,M,,*76
$GPRMC,173018.664,A,4759.212,N,08150.909,W,000.0,000.0,211125,000.0,W*66
$GPGGA,173018.964,4759.212,N,08150.909,W,1,12,1.0,0.0,M,0.0,M,,*79
$GPRMC,173018.964,A,4759.212,N,08150.909,W,000.0,000.0,211125,000.0,W*69
$GPGGA,173019.264,4759.212,N,08150.909,W,1,12,1.0,0.0,M,0.0,M,,*73
$GPRMC,173019.264,A,4759.212,N,08150.909,W,000.0,000.0,211125,000.0,W*63
$GPGGA,173019.564,4759.212,N,08150.909,W,1,12,1.0,0.0,M,0.0,M,,*74
$GPRMC,173019.564,A,4759.212,N,08150.909,W,000.0,000.0,211125,000.0,W*64
$GPGGA,173019.864,4759.212,N,08150.909,W,1,12,1.0,0.0,M,0.0,M,,*79
$GPRMC,173019.864,A,4759.212,N,08150.909,W,000.0,000.0,211125,000.0,W*69
$GPGGA,173020.164,4759.212,N,08150.909,W,1,12,1.0,0.0,M,0.0,M,,*7A
$GPRMC,173020.164,A,4759.212,N,08150.909,W,000.0,000.0,211125,000.0,W*6A
$GPGGA,173020.464,4759.212,N,08150.909,W,1,12,1.0,0.0,M,0.0,M,,*7F
$GPRMC,173020.464,A,4759.212,N,08150.909,W,000.0,000.0,211125,000.0,W*6F
$GPGGA,173020.764,4759.212,N,08150.909,W,1,12,1.0,0.0,M,0.0,M,,*7C
$GPRMC,173020.764,A,4759.212,N,08150.909,W,000.0,000.0,211125,000.0,W*6C
$GPGGA,173021.064,4759.212,N,08150.909,W,1,12,1.0,0.0,M,0.0,M,,*7A
$GPRMC,173021.064,A,4759.212,N,08150.909,W,000.0,000.0,211125,000.0,W*6A
$GPGGA,173021.364,4759.212,N,08150.909,W,1,12,1.0,0.0,M,0.0,M,,*79
$GPRMC,173021.364,A,4759.212,N,08150.909,W,000.0,000.0,211125,000.0,W*69
$GPGGA,173021.664,4759.212,N,08150.909,W,1,12,1.0,0.0,M,0.0,M,,*7C
$GPRMC,173021.664,A,4759.212,N,08150.909,W,000.0,000.0,211125,000.0,W*6C
$GPGGA,173021.964,4759.212,N,08150.909,W,1,12,1.0,0.0,M,0.0,M,,*73
$GPRMC,173021.964,A,4759.212,N,08150.909,W,000.0,000.0,211125,000.0,W*63
$GPGGA,173022.264,4759.212,N,08150.909,W,1,12,1.0,0.0,M,0.0,M,,*7B
$GPRMC,173022.264,A,4759.212,N,08150.909,W,000.0,000.0,211125,000.0,W*6B
$GPGGA,173022.564,4759.212,N,08150.909,W,1,12,1.0,0.0,M,0.0,M,,*7C
$GPRMC,173022.564,A,4759.212,N,08150.909,W,000.0,000.0,211125,000.0,W*6C
$GPGGA,173022.864,4759.212,N,08150.909,W,1,12,1.0,0.0,M,0.0,M,,*71
$GPRMC,173022.864,A,4759.212,N,08150.909,W,000.0,000.0,211125,000.0,W*61
$GPGGA,173023.164,4759.212,N,08150.909,W,1,12,1.0,0.0,M,0.0,M,,*79
$GPRMC,173023.164,A,4759.212,N,08150.909,W,000.0,000.0,211125,000.0,W*69
$GPGGA,173023.464,4759.212,N,08150.909,W,1,12,1.0,0.0,M,0.0,M,,*7C
$GPRMC,173023.464,A,4759.212,N,08150.909,W,000.0,000.0,211125,000.0,W*6C
$GPGGA,173023.764,4759.212,N,08150.909,W,1,12,1.0,0.0,M,0.0,M,,*7F
$GPRMC,173023.764,A,4759.212,N,08150.909,W,000.0,000.0,211125,000.0,W*6F
$GPGGA,173024.064,4759.212,N,08150.909,W,1,12,1.0,0.0,M,0.0,M,,*7F
$GPRMC,173024.064,A,4759.212,N,08150.909,W,000.0,000.0,211125,000.0,W*6F
$GPGGA,173024.364,4759.212,N,08150.909,W,1,12,1.0,0.0,M,0.0,M,,*7C
$GPRMC,173024.364,A,4759.212,N,08150.909,W,000.0,000.0,211125,000.0,W*6C
$GPGGA,173024.664,4759.212,N,08150.909,W,1,12,1.0,0.0,M,0.0,M,,*79
$GPRMC,173024.664,A,4759.212,N,08150.909,W,000.0,000.0,211125,000.0,W*69
$GPGGA,173024.964,4759.212,N,08150.909,W,1,12,1.0,0.0,M,0.0,M,,*76
$GPRMC,173024.964,A,4759.212,N,08150.909,W,000.0,000.0,211125,000.0,W*66
$GPGGA,173025.264,4759.212,N,08150.909,W,1,12,1.0,0.0,M,0.0,M,,*7C
$GPRMC,173025.264,A,4759.212,N,08150.909,W,000.0,000.0,211125,000.0,W*6C
$GPGGA,173025.564,4759.212,N,08150.909,W,1,12,1.0,0.0,M,0.0,M,,*7B
$GPRMC,173025.564,A,4759.212,N,08150.909,W,000.0,000.0,211125,000.0,W*6B
$GPGGA,173025.864,4759.212,N,08150.909,W,1,12,1.0,0.0,M,0.0,M,,*76
$GPRMC,173025.864,A,4759.212,N,08150.909,W,000.0,000.0,211125,000.0,W*66
$GPGGA,173026.164,4759.212,N,08150.909,W,1,12,1.0,0.0,M,0.0,M,,*7C
$GPRMC,173026.164,A,4759.212,N,08150.909,W,000.0,000.0,211125,000.0,W*6C
$GPGGA,173026.464,4759.212,N,08150.909,W,1,12,1.0,0.0,M,0.0,M,,*79
$GPRMC,173026.464,A,4759.212,N,08150.909,W,000.0,000.0,211125,000.0,W*69
$GPGGA,173026.764,4759.212,N,08150.909,W,1,12,1.0,0.0,M,0.0,M,,*7A
$GPRMC,173026.764,A,4759.212,N,08150.909,W,000.0,000.0,211125,000.0,W*6A
$GPGGA,173027.064,4759.212,N,08150.909,W,1,12,1.0,0.0,M,0.0,M,,*7C
$GPRMC,173027.064,A,4759.212,N,08150.909,W,000.0,000.0,211125,000.0,W*6C
$GPGGA,173027.364,4759.212,N,08150.909,W,1,12,1.0,0.0,M,0.0,M,,*7F
$GPRMC,173027.364,A,4759.212,N,08150.909,W,000.0,000.0,211125,000.0,W*6F
$GPGGA,173027.664,4759.212,N,08150.909,W,1,12,1.0,0.0,M,0.0,M,,*7A
$GPRMC,173027.664,A,4759.212,N,08150.909,W,000.0,000.0,211125,000.0,W*6A
$GPGGA,173027.964,4759.212,N,08150.909,W,1,12,1.0,0.0,M,0.0,M,,*75
$GPRMC,173027.964,A,4759.212,N,08150.909,W,000.0,000.0,211125,000.0,W*65
$GPGGA,173028.264,4759.212,N,08150.909,W,1,12,1.0,0.0,M,0.0,M,,*71
$GPRMC,173028.264,A,4759.212,N,08150.909,W,000.0,000.0,211125,000.0,W*61
$GPGGA,173028.564,4759.212,N,08150.909,W,1,12,1.0,0.0,M,0.0,M,,*76
$GPRMC,173028.564,A,4759.212,N,08150.909,W,000.0,000.0,211125,000.0,W*66
$GPGGA,173028.864,4759.212,N,08150.909,W,1,12,1.0,0.0,M,0.0,M,,*7B
$GPRMC,173028.864,A,4759.212,N,08150.909,W,000.0,000.0,211125,000.0,W*6B
$GPGGA,173029.164,4759.212,N,08150.909,W,1,12,1.0,0.0,M,0.0,M,,*73
$GPRMC,173029.164,A,4759.212,N,08150.909,W,000.0,000.0,211125,000.0,W*63
$GPGGA,173029.464,4759.212,N,08150.909,W,1,12,1.0,0.0,M,0.0,M,,*76
$GPRMC,173029.464,A,4759.212,N,08150.909,W,000.0,000.0,211125,000.0,W*66
$GPGGA,173029.764,4759.212,N,08150.909,W,1,12,1.0,0.0,M,0.0,M,,*75
$GPRMC,173029.764,A,4759.212,N,08150.909,W,000.0,000.0,211125,000.0,W*65
$GPGGA,173030.064,4759.212,N,08150.909,W,1,12,1.0,0.0,M,0.0,M,,*7A
$GPRMC,173030.064,A,4759.212,N,08150.909,W,000.0,000.0,211125,000.0,W*6A
$GPGGA,173030.364,4759.212,N,08150.909,W,1,12,1.0,0.0,M,0.0,M,,*79
$GPRMC,173030.364,A,4759.212,N,08150.909,W,000.0,000.0,211125,000.0,W*69
$GPGGA,173030.664,4759.212,N,08150.909,W,1,12,1.0,0.0,M,0.0,M,,*7C
$GPRMC,173030.664,A,4759.212,N,08150.909,W,000.0,000.0,211125,000.0,W*6C
$GPGGA,173030.964,4759.212,N,08150.909,W,1,12,1.0,0.0,M,0.0,M,,*73
$GPRMC,173030.964,A,4759.212,N,08150.909,W,000.0,000.0,211125,000.0,W*63
$GPGGA,173031.264,4759.212,N,08150.909,W,1,12,1.0,0.0,M,0.0,M,,*79
$GPRMC,173031.264,A,4759.212,N,08150.909,W,000.0,000.0,211125,000.0,W*69
$GPGGA,173031.564,4759.212,N,08150.909,W,1,12,1.0,0.0,M,0.0,M,,*7E
$GPRMC,173031.564,A,4759.212,N,08150.909,W,103.7,200.9,211125,000.0,W*60
$GPGGA,173031.864,4759.209,N,08150.910,W,1,12,1.0,0.0,M,0.0,M,,*71
$GPRMC,173031.864,A,4759.209,N,08150.910,W,011.6,000.0,211125,000.0,W*67
$GPGGA,173032.164,4759.210,N,08150.909,W,1,12,1.0,0.0,M,0.0,M,,*7B
$GPRMC,173032.164,A,4759.210,N,08150.909,W,023.1,053.2,211125,000.0,W*6F
$GPGGA,173032.464,4759.210,N,08150.907,W,1,12,1.0,0.0,M,0.0,M,,*70
$GPRMC,173032.464,A,4759.210,N,08150.907,W,031.0,000.0,211125,000.0,W*62
$GPGGA,173032.764,4759.211,N,08150.907,W,1,12,1.0,0.0,M,0.0,M,,*72
$GPRMC,173032.764,A,4759.211,N,08150.907,W,000.0,000.0,211125,000.0,W*62
$GPGGA,173033.064,4759.211,N,08150.906,W,1,12,1.0,0.0,M,0.0,M,,*75
$GPRMC,173033.064,A,4759.211,N,08150.906,W,016.6,033.8,211125,000.0,W*6C
$GPGGA,173033.364,4759.212,N,08150.905,W,1,12,1.0,0.0,M,0.0,M,,*76
$GPRMC,173033.364,A,4759.212,N,08150.905,W,034.7,000.0,211125,000.0,W*66
$GPGGA,173033.664,4759.212,N,08150.904,W,1,12,1.0,0.0,M,0.0,M,,*72
$GPRMC,173033.664,A,4759.212,N,08150.904,W,016.6,033.8,211125,000.0,W*6B
$GPGGA,173033.964,4759.213,N,08150.903,W,1,12,1.0,0.0,M,0.0,M,,*7B
$GPRMC,173033.964,A,4759.213,N,08150.903,W,034.7,053.2,211125,000.0,W*6F
$GPGGA,173034.264,4759.213,N,08150.902,W,1,12,1.0,0.0,M,0.0,M,,*76
$GPRMC,173034.264,A,4759.213,N,08150.902,W,019.8,000.0,211125,000.0,W*66
$GPGGA,173034.564,4759.214,N,08150.901,W,1,12,1.0,0.0,M,0.0,M,,*75
$GPRMC,173034.564,A,4759.214,N,08150.901,W,028.6,076.0,211125,000.0,W*68
$GPGGA,173034.864,4759.215,N,08150.899,W,1,12,1.0,0.0,M,0.0,M,,*79
$GPRMC,173034.864,A,4759.215,N,08150.899,W,033.3,000.0,211125,000.0,W*6A
$GPGGA,173035.164,4759.215,N,08150.898,W,1,12,1.0,0.0,M,0.0,M,,*70
$GPRMC,173035.164,A,4759.215,N,08150.898,W,000.0,000.0,211125,000.0,W*60
$GPGGA,173035.464,4759.216,N,08150.897,W,1,12,1.0,0.0,M,0.0,M,,*79
$GPRMC,173035.464,A,4759.216,N,08150.897,W,037.7,079.4,211125,000.0,W*60
$GPGGA,173035.764,4759.216,N,08150.894,W,1,12,1.0,0.0,M,0.0,M,,*79
$GPRMC,173035.764,A,4759.216,N,08150.894,W,031.0,000.0,211125,000.0,W*6B
$GPGGA,173036.064,4759.216,N,08150.893,W,1,12,1.0,0.0,M,0.0,M,,*7A
$GPRMC,173036.064,A,4759.216,N,08150.893,W,034.7,053.2,211125,000.0,W*6E
$GPGGA,173036.364,4759.217,N,08150.892,W,1,12,1.0,0.0,M,0.0,M,,*79
$GPRMC,173036.364,A,4759.217,N,08150.892,W,023.1,053.2,211125,000.0,W*6D
$GPGGA,173036.664,4759.217,N,08150.890,W,1,12,1.0,0.0,M,0.0,M,,*7E
$GPRMC,173036.664,A,4759.217,N,08150.890,W,039.5,000.0,211125,000.0,W*61
$GPGGA,173036.964,4759.218,N,08150.889,W,1,12,1.0,0.0,M,0.0,M,,*76
$GPRMC,173036.964,A,4759.218,N,08150.889,W,644.4,009.1,211125,000.0,W*6C
$GPGGA,173037.264,4759.235,N,08150.885,W,1,12,1.0,0.0,M,0.0,M,,*7F
$GPRMC,173037.264,A,4759.235,N,08150.885,W,911.2,212.6,211125,000.0,W*63
$GPGGA,173037.564,4759.230,N,08150.882,W,1,12,1.0,0.0,M,0.0,M,,*7A
$GPRMC,173037.564,A,4759.230,N,08150.882,W,813.9,000.0,211125,000.0,W*69
$GPGGA,173037.864,4759.219,N,08150.850,W,1,12,1.0,0.0,M,0.0,M,,*73
$GPRMC,173037.864,A,4759.219,N,08150.850,W,234.0,098.5,211125,000.0,W*62
$GPGGA,173038.164,4759.218,N,08150.835,W,1,12,1.0,0.0,M,0.0,M,,*77
$GPRMC,173038.164,A,4759.218,N,08150.835,W,139.6,000.0,211125,000.0,W*6A
$GPGGA,173038.464,4759.218,N,08150.834,W,1,12,1.0,0.0,M,0.0,M,,*73
$GPRMC,173038.464,A,4759.218,N,08150.834,W,016.6,000.0,211125,000.0,W*62
$GPGGA,173038.764,4759.221,N,08150.833,W,1,12,1.0,0.0,M,0.0,M,,*7D
$GPRMC,173038.764,A,4759.221,N,08150.833,W,121.2,113.5,211125,000.0,W*6B
$GPGGA,173039.064,4759.216,N,08150.823,W,1,12,1.0,0.0,M,0.0,M,,*7E
$GPRMC,173039.064,A,4759.216,N,08150.823,W,175.0,000.0,211125,000.0,W*6D
$GPGGA,173039.364,4759.216,N,08150.820,W,1,12,1.0,0.0,M,0.0,M,,*7E
$GPRMC,173039.364,A,4759.216,N,08150.820,W,000.0,000.0,211125,000.0,W*6E
$GPGGA,173039.664,4759.217,N,08150.817,W,1,12,1.0,0.0,M,0.0,M,,*7E
$GPRMC,173039.664,A,4759.217,N,08150.817,W,096.6,073.4,211125,000.0,W*67
$GPGGA,173039.964,4759.217,N,08150.807,W,1,12,1.0,0.0,M,0.0,M,,*70
$GPRMC,173039.964,A,4759.217,N,08150.807,W,152.1,000.0,211125,000.0,W*67
$GPGGA,173040.264,4759.225,N,08150.801,W,1,12,1.0,0.0,M,0.0,M,,*72
$GPRMC,173040.264,A,4759.225,N,08150.801,W,244.7,148.0,211125,000.0,W*6A
$GPGGA,173040.564,4759.220,N,08150.796,W,1,12,1.0,0.0,M,0.0,M,,*71
$GPRMC,173040.564,A,4759.220,N,08150.796,W,085.9,104.0,211125,000.0,W*60
$GPGGA,173040.864,4759.220,N,08150.790,W,1,12,1.0,0.0,M,0.0,M,,*7A
$GPRMC,173040.864,A,4759.220,N,08150.790,W,077.0,000.0,211125,000.0,W*6A
$GPGGA,173041.164,4759.218,N,08150.790,W,1,12,1.0,0.0,M,0.0,M,,*79
$GPRMC,173041.164,A,4759.218,N,08150.790,W,337.9,080.6,211125,000.0,W*69
$GPGGA,173041.464,4759.216,N,08150.769,W,1,12,1.0,0.0,M,0.0,M,,*74
$GPRMC,173041.464,A,4759.216,N,08150.769,W,221.1,000.0,211125,000.0,W*64
$GPGGA,173041.764,4759.223,N,08150.768,W,1,12,1.0,0.0,M,0.0,M,,*70
$GPRMC,173041.764,A,4759.223,N,08150.768,W,278.1,000.0,211125,000.0,W*6C
$GPGGA,173042.064,4759.219,N,08150.768,W,1,12,1.0,0.0,M,0.0,M,,*7D
$GPRMC,173042.064,A,4759.219,N,08150.768,W,049.3,169.2,211125,000.0,W*6F
$GPGGA,173042.364,4759.221,N,08150.755,W,1,12,1.0,0.0,M,0.0,M,,*7B
$GPRMC,173042.364,A,4759.221,N,08150.755,W,338.5,000.0,211125,000.0,W*66
$GPGGA,173042.664,4759.215,N,08150.755,W,1,12,1.0,0.0,M,0.0,M,,*79
$GPRMC,173042.664,A,4759.215,N,08150.755,W,000.0,000.0,211125,000.0,W*69
$GPGGA,173042.964,4759.218,N,08150.743,W,1,12,1.0,0.0,M,0.0,M,,*7C
$GPRMC,173042.964,A,4759.218,N,08150.743,W,074.5,158.1,211125,000.0,W*67
$GPGGA,173043.264,4759.222,N,08150.741,W,1,12,1.0,0.0,M,0.0,M,,*7D
$GPRMC,173043.264,A,4759.222,N,08150.741,W,228.4,000.0,211125,000.0,W*61
$GPGGA,173043.564,4759.224,N,08150.728,W,1,12,1.0,0.0,M,0.0,M,,*73
$GPRMC,173043.564,A,4759.224,N,08150.728,W,240.0,198.0,211125,000.0,W*65
$GPGGA,173043.864,4759.218,N,08150.731,W,1,12,1.0,0.0,M,0.0,M,,*79
$GPRMC,173043.864,A,4759.218,N,08150.731,W,486.6,076.0,211125,000.0,W*64
$GPGGA,173044.164,4759.224,N,08150.698,W,1,12,1.0,0.0,M,0.0,M,,*7A
$GPRMC,173044.164,A,4759.224,N,08150.698,W,344.7,000.0,211125,000.0,W*6E
$GPGGA,173044.464,4759.227,N,08150.695,W,1,12,1.0,0.0,M,0.0,M,,*71
$GPRMC,173044.464,A,4759.227,N,08150.695,W,116.4,287.3,211125,000.0,W*6D
$GPGGA,173044.764,4759.228,N,08150.700,W,1,12,1.0,0.0,M,0.0,M,,*70
$GPRMC,173044.764,A,4759.228,N,08150.700,W,078.4,314.9,211125,000.0,W*64
$GPGGA,173045.064,4759.223,N,08150.702,W,1,12,1.0,0.0,M,0.0,M,,*7F
$GPRMC,173045.064,A,4759.223,N,08150.702,W,214.4,000.0,211125,000.0,W*6C
$GPGGA,173045.364,4759.227,N,08150.693,W,1,12,1.0,0.0,M,0.0,M,,*71
$GPRMC,173045.364,A,4759.227,N,08150.693,W,524.0,081.7,211125,000.0,W*6C
$GPGGA,173045.664,4759.233,N,08150.673,W,1,12,1.0,0.0,M,0.0,M,,*7F
$GPRMC,173045.664,A,4759.233,N,08150.673,W,136.5,000.0,211125,000.0,W*6E
$GPGGA,173045.964,4759.235,N,08150.672,W,1,12,1.0,0.0,M,0.0,M,,*77
$GPRMC,173045.964,A,4759.235,N,08150.672,W,072.4,000.0,211125,000.0,W*66
$GPGGA,173046.264,4759.234,N,08150.671,W,1,12,1.0,0.0,M,0.0,M,,*7D
$GPRMC,173046.264,A,4759.234,N,08150.671,W,000.0,000.0,211125,000.0,W*6D
$GPGGA,173046.564,4759.234,N,08150.671,W,1,12,1.0,0.0,M,0.0,M,,*7A
$GPRMC,173046.564,A,4759.234,N,08150.671,W,000.0,000.0,211125,000.0,W*6A
$GPGGA,173046.864,4759.234,N,08150.671,W,1,12,1.0,0.0,M,0.0,M,,*77
$GPRMC,173046.864,A,4759.234,N,08150.671,W,000.0,000.0,211125,000.0,W*67
$GPGGA,173047.164,4759.235,N,08150.665,W,1,12,1.0,0.0,M,0.0,M,,*7B
$GPRMC,173047.164,A,4759.235,N,08150.665,W,046.3,090.0,211125,000.0,W*63
$GPGGA,173047.464,4759.235,N,08150.663,W,1,12,1.0,0.0,M,0.0,M,,*78
$GPRMC,173047.464,A,4759.235,N,08150.663,W,009.3,000.0,211125,000.0,W*62
$GPGGA,173047.764,4759.236,N,08150.661,W,1,12,1.0,0.0,M,0.0,M,,*7A
$GPRMC,173047.764,A,4759.236,N,08150.661,W,000.0,000.0,211125,000.0,W*6A
$GPGGA,173048.064,4759.235,N,08150.659,W,1,12,1.0,0.0,M,0.0,M,,*7A
$GPRMC,173048.064,A,4759.235,N,08150.659,W,019.8,110.5,211125,000.0,W*6F
$GPGGA,173048.364,4759.235,N,08150.658,W,1,12,1.0,0.0,M,0.0,M,,*78
$GPRMC,173048.364,A,4759.235,N,08150.658,W,018.5,000.0,211125,000.0,W*64
$GPGGA,173048.664,4759.235,N,08150.643,W,1,12,1.0,0.0,M,0.0,M,,*77
$GPRMC,173048.664,A,4759.235,N,08150.643,W,245.9,150.7,211125,000.0,W*6E
$GPGGA,173048.964,4759.229,N,08150.638,W,1,12,1.0,0.0,M,0.0,M,,*79
$GPRMC,173048.964,A,4759.229,N,08150.638,W,271.7,081.2,211125,000.0,W*61
$GPGGA,173049.264,4759.235,N,08150.627,W,1,12,1.0,0.0,M,0.0,M,,*70
$GPRMC,173049.264,A,4759.235,N,08150.627,W,172.9,000.0,211125,000.0,W*6D
$GPGGA,173049.564,4759.235,N,08150.627,W,1,12,1.0,0.0,M,0.0,M,,*77
$GPRMC,173049.564,A,4759.235,N,08150.627,W,1295.5,003.3,211125,000.0,W*5D
$GPGGA,173049.864,4759.273,N,08150.623,W,1,12,1.0,0.0,M,0.0,M,,*7C
$GPRMC,173049.864,A,4759.273,N,08150.623,W,071.6,000.0,211125,000.0,W*6C
$GPGGA,173050.164,4759.281,N,08150.621,W,1,12,1.0,0.0,M,0.0,M,,*72
$GPRMC,173050.164,A,4759.281,N,08150.621,W,000.0,000.0,211125,000.0,W*62
$GPGGA,173050.464,4759.282,N,08150.621,W,1,12,1.0,0.0,M,0.0,M,,*74
$GPRMC,173050.464,A,4759.282,N,08150.621,W,018.5,090.0,211125,000.0,W*61
$GPGGA,173050.764,4759.285,N,08150.620,W,1,12,1.0,0.0,M,0.0,M,,*71
$GPRMC,173050.764,A,4759.285,N,08150.620,W,124.5,000.0,211125,000.0,W*63
$GPGGA,173051.064,4759.286,N,08150.616,W,1,12,1.0,0.0,M,0.0,M,,*71
$GPRMC,173051.064,A,4759.286,N,08150.616,W,000.0,000.0,211125,000.0,W*61
$GPGGA,173051.364,4759.286,N,08150.614,W,1,12,1.0,0.0,M,0.0,M,,*70
$GPRMC,173051.364,A,4759.286,N,08150.614,W,039.2,045.1,211125,000.0,W*68
$GPGGA,173051.664,4759.287,N,08150.612,W,1,12,1.0,0.0,M,0.0,M,,*72
$GPRMC,173051.664,A,4759.287,N,08150.612,W,009.3,000.0,211125,000.0,W*68
$GPGGA,173051.964,4759.287,N,08150.611,W,1,12,1.0,0.0,M,0.0,M,,*7E
$GPRMC,173051.964,A,4759.287,N,08150.611,W,028.6,076.0,211125,000.0,W*63
$GPGGA,173052.264,4759.287,N,08150.610,W,1,12,1.0,0.0,M,0.0,M,,*77
$GPRMC,173052.264,A,4759.287,N,08150.610,W,145.2,000.0,211125,000.0,W*65
$GPGGA,173052.564,4759.292,N,08150.605,W,1,12,1.0,0.0,M,0.0,M,,*70
$GPRMC,173052.564,A,4759.292,N,08150.605,W,129.8,000.0,211125,000.0,W*62
$GPGGA,173052.864,4759.291,N,08150.602,W,1,12,1.0,0.0,M,0.0,M,,*79
$GPRMC,173052.864,A,4759.291,N,08150.602,W,019.8,110.5,211125,000.0,W*6C
$GPGGA,173053.164,4759.291,N,08150.601,W,1,12,1.0,0.0,M,0.0,M,,*72
$GPRMC,173053.164,A,4759.291,N,08150.601,W,011.6,000.0,211125,000.0,W*64
$GPGGA,173053.464,4759.291,N,08150.600,W,1,12,1.0,0.0,M,0.0,M,,*76
$GPRMC,173053.464,A,4759.291,N,08150.600,W,028.6,000.0,211125,000.0,W*6A
$GPGGA,173053.764,4759.291,N,08150.599,W,1,12,1.0,0.0,M,0.0,M,,*76
$GPRMC,173053.764,A,4759.291,N,08150.599,W,088.7,141.2,211125,000.0,W*67
$GPGGA,173054.064,4759.289,N,08150.596,W,1,12,1.0,0.0,M,0.0,M,,*70
$GPRMC,173054.064,A,4759.289,N,08150.596,W,019.8,000.0,211125,000.0,W*60
$GPGGA,173054.364,4759.290,N,08150.596,W,1,12,1.0,0.0,M,0.0,M,,*7B
$GPRMC,173054.364,A,4759.290,N,08150.596,W,000.0,000.0,211125,000.0,W*6B
$GPGGA,173054.664,4759.290,N,08150.596,W,1,12,1.0,0.0,M,0.0,M,,*7E
$GPRMC,173054.664,A,4759.290,N,08150.596,W,006.9,180.0,211125,000.0,W*68
$GPGGA,173054.964,4759.290,N,08150.596,W,1,12,1.0,0.0,M,0.0,M,,*71
$GPRMC,173054.964,A,4759.290,N,08150.596,W,000.0,000.0,211125,000.0,W*61
$GPGGA,173055.264,4759.290,N,08150.596,W,1,12,1.0,0.0,M,0.0,M,,*7B
$GPRMC,173055.264,A,4759.290,N,08150.596,W,000.0,000.0,211125,000.0,W*6B
$GPGGA,173055.564,4759.290,N,08150.596,W,1,12,1.0,0.0,M,0.0,M,,*7C
$GPRMC,173055.564,A,4759.290,N,08150.596,W,000.0,000.0,211125,000.0,W*6C
$GPGGA,173055.864,4759.290,N,08150.596,W,1,12,1.0,0.0,M,0.0,M,,*71
$GPRMC,173055.864,A,4759.290,N,08150.596,W,000.0,000.0,211125,000.0,W*61
$GPGGA,173056.164,4759.290,N,08150.596,W,1,12,1.0,0.0,M,0.0,M,,*7B
$GPRMC,173056.164,A,4759.290,N,08150.596,W,000.0,000.0,211125,000.0,W*6B
$GPGGA,173056.464,4759.290,N,08150.596,W,1,12,1.0,0.0,M,0.0,M,,*7E
$GPRMC,173056.464,A,4759.290,N,08150.596,W,000.0,000.0,211125,000.0,W*6E
$GPGGA,173056.764,4759.290,N,08150.596,W,1,12,1.0,0.0,M,0.0,M,,*7D
$GPRMC,173056.764,A,4759.290,N,08150.596,W,000.0,000.0,211125,000.0,W*6D
$GPGGA,173057.064,4759.290,N,08150.596,W,1,12,1.0,0.0,M,0.0,M,,*7B
$GPRMC,173057.064,A,4759.290,N,08150.596,W,000.0,000.0,211125,000.0,W*6B
$GPGGA,173057.364,4759.290,N,08150.596,W,1,12,1.0,0.0,M,0.0,M,,*78
$GPRMC,173057.364,A,4759.290,N,08150.596,W,000.0,000.0,211125,000.0,W*68
$GPGGA,173057.664,4759.290,N,08150.596,W,1,12,1.0,0.0,M,0.0,M,,*7D
$GPRMC,173057.664,A,4759.290,N,08150.596,W,000.0,000.0,211125,000.0,W*6D
$GPGGA,173057.964,4759.290,N,08150.596,W,1,12,1.0,0.0,M,0.0,M,,*72
$GPRMC,173057.964,A,4759.290,N,08150.596,W,000.0,000.0,211125,000.0,W*62
$GPGGA,173058.264,4759.290,N,08150.596,W,1,12,1.0,0.0,M,0.0,M,,*76
$GPRMC,173058.264,A,4759.290,N,08150.596,W,000.0,000.0,211125,000.0,W*66
$GPGGA,173058.564,4759.290,N,08150.596,W,1,12,1.0,0.0,M,0.0,M,,*71
$GPRMC,173058.564,A,4759.290,N,08150.596,W,000.0,000.0,211125,000.0,W*61
$GPGGA,173058.864,4759.290,N,08150.596,W,1,12,1.0,0.0,M,0.0,M,,*7C
$GPRMC,173058.864,A,4759.290,N,08150.596,W,000.0,000.0,211125,000.0,W*6C
$GPGGA,173059.164,4759.290,N,08150.596,W,1,12,1.0,0.0,M,0.0,M,,*74
$GPRMC,173059.164,A,4759.290,N,08150.596,W,32409.6,248.7,211125,000.0,W*67
$GPGGA,173059.464,4758.963,N,08151.848,W,1,12,1.0,0.0,M,0.0,M,,*78
$GPRMC,173059.464,A,4758.963,N,08151.848,W,000.0,000.0,211125,000.0,W*68
$GPGGA,173059.764,4758.963,N,08151.848,W,1,12,1.0,0.0,M,0.0,M,,*7B
$GPRMC,173059.764,A,4758.963,N,08151.848,W,000.0,000.0,211125,000.0,W*6B
$GPGGA,173100.064,4758.963,N,08151.848,W,1,12,1.0,0.0,M,0.0,M,,*71
$GPRMC,173100.064,A,4758.963,N,08151.848,W,000.0,000.0,211125,000.0,W*61
$GPGGA,173100.364,4758.963,N,08151.848,W,1,12,1.0,0.0,M,0.0,M,,*72
$GPRMC,173100.364,A,4758.963,N,08151.848,W,000.0,000.0,211125,000.0,W*62
$GPGGA,173100.664,4758.963,N,08151.848,W,1,12,1.0,0.0,M,0.0,M,,*77
$GPRMC,173100.664,A,4758.963,N,08151.848,W,000.0,000.0,211125,000.0,W*67
$GPGGA,173100.964,4758.946,N,08151.893,W,1,12,1.0,0.0,M,0.0,M,,*79
$GPRMC,173100.964,A,4758.946,N,08151.893,W,1221.2,061.6,211125,000.0,W*5A
$GPGGA,173101.264,4758.963,N,08151.848,W,1,12,1.0,0.0,M,0.0,M,,*72
$GPRMC,173101.264,A,4758.963,N,08151.848,W,000.0,000.0,211125,000.0,W*62
$GPGGA,173101.564,4758.963,N,08151.848,W,1,12,1.0,0.0,M,0.0,M,,*75
$GPRMC,173101.564,A,4758.963,N,08151.848,W,000.0,000.0,211125,000.0,W*65
$GPGGA,173101.864,4758.963,N,08151.848,W,1,12,1.0,0.0,M,0.0,M,,*78
$GPRMC,173101.864,A,4758.963,N,08151.848,W,000.0,000.0,211125,000.0,W*68
$GPGGA,173102.164,4758.963,N,08151.848,W,1,12,1.0,0.0,M,0.0,M,,*72
$GPRMC,173102.164,A,4758.963,N,08151.848,W,000.0,000.0,211125,000.0,W*62
$GPGGA,173102.464,4759.352,N,08151.692,W,1,12,1.0,0.0,M,0.0,M,,*77
$GPRMC,173102.464,A,4759.352,N,08151.692,W,000.0,000.0,211125,000.0,W*67
$GPGGA,173102.764,4759.352,N,08151.692,W,1,12,1.0,0.0,M,0.0,M,,*74
$GPRMC,173102.764,A,4759.352,N,08151.692,W,000.0,000.0,211125,000.0,W*64
$GPGGA,173103.064,4759.357,N,08151.707,W,1,12,1.0,0.0,M,0.0,M,,*7A
$GPRMC,173103.064,A,4759.357,N,08151.707,W,403.4,000.0,211125,000.0,W*69
$GPGGA,173103.364,4759.357,N,08151.707,W,1,12,1.0,0.0,M,0.0,M,,*79
$GPRMC,173103.364,A,4759.357,N,08151.707,W,000.0,000.0,211125,000.0,W*69
$GPGGA,173103.664,4759.357,N,08151.707,W,1,12,1.0,0.0,M,0.0,M,,*7C
$GPRMC,173103.664,A,4759.357,N,08151.707,W,000.0,000.0,211125,000.0,W*6C
$GPGGA,173103.964,4759.357,N,08151.707,W,1,12,1.0,0.0,M,0.0,M,,*73
$GPRMC,173103.964,A,4759.357,N,08151.707,W,000.0,000.0,211125,000.0,W*63
$GPGGA,173104.264,4759.357,N,08151.707,W,1,12,1.0,0.0,M,0.0,M,,*7F
$GPRMC,173104.264,A,4759.357,N,08151.707,W,000.0,000.0,211125,000.0,W*6F
$GPGGA,173104.564,4759.357,N,08151.707,W,1,12,1.0,0.0,M,0.0,M,,*78
$GPRMC,173104.564,A,4759.357,N,08151.707,W,000.0,000.0,211125,000.0,W*68
$GPGGA,173104.864,4759.357,N,08151.707,W,1,12,1.0,0.0,M,0.0,M,,*75
$GPRMC,173104.864,A,4759.357,N,08151.707,W,000.0,000.0,211125,000.0,W*65
$GPGGA,173105.164,4759.357,N,08151.707,W,1,12,1.0,0.0,M,0.0,M,,*7D
$GPRMC,173105.164,A,4759.357,N,08151.707,W,000.0,000.0,211125,000.0,W*6D
$GPGGA,173105.464,4759.357,N,08151.707,W,1,12,1.0,0.0,M,0.0,M,,*78
$GPRMC,173105.464,A,4759.357,N,08151.707,W,000.0,000.0,211125,000.0,W*68
$GPGGA,173105.764,4759.357,N,08151.707,W,1,12,1.0,0.0,M,0.0,M,,*7B
$GPRMC,173105.764,A,4759.357,N,08151.707,W,000.0,000.0,211125,000.0,W*6B
$GPGGA,173106.064,4759.357,N,08151.707,W,1,12,1.0,0.0,M,0.0,M,,*7F
$GPRMC,173106.064,A,4759.357,N,08151.707,W,000.0,000.0,211125,000.0,W*6F
$GPGGA,173106.364,4759.357,N,08151.707,W,1,12,1.0,0.0,M,0.0,M,,*7C
$GPRMC,173106.364,A,4759.357,N,08151.707,W,000.0,000.0,211125,000.0,W*6C
$GPGGA,173106.664,4759.357,N,08151.707,W,1,12,1.0,0.0,M,0.0,M,,*79
$GPRMC,173106.664,A,4759.357,N,08151.707,W,000.0,000.0,211125,000.0,W*69
$GPGGA,173106.964,4759.357,N,08151.707,W,1,12,1.0,0.0,M,0.0,M,,*76
$GPRMC,173106.964,A,4759.357,N,08151.707,W,000.0,000.0,211125,000.0,W*66
$GPGGA,173107.264,4759.357,N,08151.707,W,1,12,1.0,0.0,M,0.0,M,,*7C
$GPRMC,173107.264,A,4759.357,N,08151.707,W,000.0,000.0,211125,000.0,W*6C
$GPGGA,173107.564,4759.357,N,08151.707,W,1,12,1.0,0.0,M,0.0,M,,*7B
$GPRMC,173107.564,A,4759.357,N,08151.707,W,000.0,000.0,211125,000.0,W*6B
$GPGGA,173107.864,4759.357,N,08151.707,W,1,12,1.0,0.0,M,0.0,M,,*76
$GPRMC,173107.864,A,4759.357,N,08151.707,W,000.0,000.0,211125,000.0,W*66
$GPGGA,173108.164,4759.357,N,08151.707,W,1,12,1.0,0.0,M,0.0,M,,*70
$GPRMC,173108.164,A,4759.357,N,08151.707,W,000.0,000.0,211125,000.0,W*60
$GPGGA,173108.464,4759.357,N,08151.707,W,1,12,1.0,0.0,M,0.0,M,,*75
$GPRMC,173108.464,A,4759.357,N,08151.707,W,000.0,000.0,211125,000.0,W*65
$GPGGA,173108.764,4759.357,N,08151.707,W,1,12,1.0,0.0,M,0.0,M,,*76
$GPRMC,173108.764,A,4759.357,N,08151.707,W,000.0,000.0,211125,000.0,W*66
$GPGGA,173109.064,4759.357,N,08151.707,W,1,12,1.0,0.0,M,0.0,M,,*70
$GPRMC,173109.064,A,4759.357,N,08151.707,W,000.0,000.0,211125,000.0,W*60
$GPGGA,173109.364,4759.357,N,08151.707,W,1,12,1.0,0.0,M,0.0,M,,*73
$GPRMC,173109.364,A,4759.357,N,08151.707,W,000.0,000.0,211125,000.0,W*63
$GPGGA,173109.664,4759.357,N,08151.707,W,1,12,1.0,0.0,M,0.0,M,,*76
$GPRMC,173109.664,A,4759.357,N,08151.707,W,000.0,000.0,211125,000.0,W*66
$GPGGA,173109.964,4759.357,N,08151.707,W,1,12,1.0,0.0,M,0.0,M,,*79
$GPRMC,173109.964,A,4759.357,N,08151.707,W,000.0,000.0,211125,000.0,W*69
$GPGGA,173110.264,4759.357,N,08151.707,W,1,12,1.0,0.0,M,0.0,M,,*7A
$GPRMC,173110.264,A,4759.357,N,08151.707,W,000.0,000.0,211125,000.0,W*6A
$GPGGA,173110.564,4759.357,N,08151.707,W,1,12,1.0,0.0,M,0.0,M,,*7D
$GPRMC,173110.564,A,4759.357,N,08151.707,W,000.0,000.0,211125,000.0,W*6D
$GPGGA,173110.864,4759.357,N,08151.707,W,1,12,1.0,0.0,M,0.0,M,,*70
$GPRMC,173110.864,A,4759.357,N,08151.707,W,000.0,000.0,211125,000.0,W*60
$GPGGA,173111.164,4759.357,N,08151.707,W,1,12,1.0,0.0,M,0.0,M,,*78
$GPRMC,173111.164,A,4759.357,N,08151.707,W,000.0,000.0,211125,000.0,W*68
$GPGGA,173111.464,4759.357,N,08151.707,W,1,12,1.0,0.0,M,0.0,M,,*7D
$GPRMC,173111.464,A,4759.357,N,08151.707,W,000.0,000.0,211125,000.0,W*6D
$GPGGA,173111.764,4759.357,N,08151.707,W,1,12,1.0,0.0,M,0.0,M,,*7E
$GPRMC,173111.764,A,4759.357,N,08151.707,W,000.0,000.0,211125,000.0,W*6E
$GPGGA,173112.064,4759.357,N,08151.707,W,1,12,1.0,0.0,M,0.0,M,,*7A
$GPRMC,173112.064,A,4759.357,N,08151.707,W,000.0,000.0,211125,000.0,W*6A
$GPGGA,173112.364,4759.357,N,08151.707,W,1,12,1.0,0.0,M,0.0,M,,*79
$GPRMC,173112.364,A,4759.357,N,08151.707,W,000.0,000.0,211125,000.0,W*69
$GPGGA,173112.664,4759.357,N,08151.707,W,1,12,1.0,0.0,M,0.0,M,,*7C
$GPRMC,173112.664,A,4759.357,N,08151.707,W,000.0,000.0,211125,000.0,W*6C
$GPGGA,173112.964,4759.357,N,08151.707,W,1,12,1.0,0.0,M,0.0,M,,*73
$GPRMC,173112.964,A,4759.357,N,08151.707,W,000.0,000.0,211125,000.0,W*63
$GPGGA,173113.264,4759.357,N,08151.707,W,1,12,1.0,0.0,M,0.0,M,,*79
$GPRMC,173113.264,A,4759.357,N,08151.707,W,000.0,000.0,211125,000.0,W*69
$GPGGA,173113.564,4759.357,N,08151.707,W,1,12,1.0,0.0,M,0.0,M,,*7E
$GPRMC,173113.564,A,4759.357,N,08151.707,W,000.0,000.0,211125,000.0,W*6E
$GPGGA,173113.864,4759.357,N,08151.707,W,1,12,1.0,0.0,M,0.0,M,,*73
$GPRMC,173113.864,A,4759.357,N,08151.707,W,000.0,000.0,211125,000.0,W*63
$GPGGA,173114.164,4759.357,N,08151.707,W,1,12,1.0,0.0,M,0.0,M,,*7D
$GPRMC,173114.164,A,4759.357,N,08151.707,W,000.0,000.0,211125,000.0,W*6D
$GPGGA,173114.464,4759.357,N,08151.707,W,1,12,1.0,0.0,M,0.0,M,,*78
$GPRMC,173114.464,A,4759.357,N,08151.707,W,000.0,000.0,211125,000.0,W*68
$GPGGA,173114.764,4759.357,N,08151.707,W,1,12,1.0,0.0,M,0.0,M,,*7B
$GPRMC,173114.764,A,4759.357,N,08151.707,W,000.0,000.0,211125,000.0,W*6B
$GPGGA,173115.064,4759.357,N,08151.707,W,1,12,1.0,0.0,M,0.0,M,,*7D
$GPRMC,173115.064,A,4759.357,N,08151.707,W,000.0,000.0,211125,000.0,W*6D
$GPGGA,173115.364,4759.357,N,08151.707,W,1,12,1.0,0.0,M,0.0,M,,*7E
$GPRMC,173115.364,A,4759.357,N,08151.707,W,000.0,000.0,211125,000.0,W*6E
$GPGGA,173115.664,4759.357,N,08151.707,W,1,12,1.0,0.0,M,0.0,M,,*7B
$GPRMC,173115.664,A,4759.357,N,08151.707,W,000.0,000.0,211125,000.0,W*6B
$GPGGA,173115.964,4759.357,N,08151.707,W,1,12,1.0,0.0,M,0.0,M,,*74
$GPRMC,173115.964,A,4759.357,N,08151.707,W,000.0,000.0,211125,000.0,W*64
$GPGGA,173116.264,4759.357,N,08151.707,W,1,12,1.0,0.0,M,0.0,M,,*7C
$GPRMC,173116.264,A,4759.357,N,08151.707,W,000.0,000.0,211125,000.0,W*6C
$GPGGA,173116.564,4759.357,N,08151.707,W,1,12,1.0,0.0,M,0.0,M,,*7B
$GPRMC,173116.564,A,4759.357,N,08151.707,W,000.0,000.0,211125,000.0,W*6B
$GPGGA,173116.864,4759.357,N,08151.707,W,1,12,1.0,0.0,M,0.0,M,,*76
$GPRMC,173116.864,A,4759.357,N,08151.707,W,000.0,000.0,211125,000.0,W*66
$GPGGA,173117.164,4759.357,N,08151.707,W,1,12,1.0,0.0,M,0.0,M,,*7E
$GPRMC,173117.164,A,4759.357,N,08151.707,W,000.0,000.0,211125,000.0,W*6E
$GPGGA,173117.464,4759.357,N,08151.707,W,1,12,1.0,0.0,M,0.0,M,,*7B
$GPRMC,173117.464,A,4759.357,N,08151.707,W,000.0,000.0,211125,000.0,W*6B
$GPGGA,173117.764,4759.357,N,08151.707,W,1,12,1.0,0.0,M,0.0,M,,*78
$GPRMC,173117.764,A,4759.357,N,08151.707,W,000.0,000.0,211125,000.0,W*68
$GPGGA,173118.064,4759.357,N,08151.707,W,1,12,1.0,0.0,M,0.0,M,,*70
$GPRMC,173118.064,A,4759.357,N,08151.707,W,000.0,000.0,211125,000.0,W*60
$GPGGA,173118.364,4759.357,N,08151.707,W,1,12,1.0,0.0,M,0.0,M,,*73
$GPRMC,173118.364,A,4759.357,N,08151.707,W,000.0,000.0,211125,000.0,W*63
$GPGGA,173118.664,4759.357,N,08151.707,W,1,12,1.0,0.0,M,0.0,M,,*76
$GPRMC,173118.664,A,4759.357,N,08151.707,W,000.0,000.0,211125,000.0,W*66
$GPGGA,173118.964,4759.357,N,08151.707,W,1,12,1.0,0.0,M,0.0,M,,*79
$GPRMC,173118.964,A,4759.357,N,08151.707,W,000.0,000.0,211125,000.0,W*69
$GPGGA,173119.264,4759.357,N,08151.707,W,1,12,1.0,0.0,M,0.0,M,,*73
$GPRMC,173119.264,A,4759.357,N,08151.707,W,000.0,000.0,211125,000.0,W*63
$GPGGA,173119.564,4759.357,N,08151.707,W,1,12,1.0,0.0,M,0.0,M,,*74
$GPRMC,173119.564,A,4759.357,N,08151.707,W,000.0,000.0,211125,000.0,W*64
$GPGGA,173119.864,4759.357,N,08151.707,W,1,12,1.0,0.0,M,0.0,M,,*79
$GPRMC,173119.864,A,4759.357,N,08151.707,W,000.0,000.0,211125,000.0,W*69
$GPGGA,173120.164,4759.357,N,08151.707,W,1,12,1.0,0.0,M,0.0,M,,*7A
$GPRMC,173120.164,A,4759.357,N,08151.707,W,000.0,000.0,211125,000.0,W*6A
$GPGGA,173120.464,4759.357,N,08151.707,W,1,12,1.0,0.0,M,0.0,M,,*7F
$GPRMC,173120.464,A,4759.357,N,08151.707,W,000.0,000.0,211125,000.0,W*6F
$GPGGA,173120.764,4759.357,N,08151.707,W,1,12,1.0,0.0,M,0.0,M,,*7C
$GPRMC,173120.764,A,4759.357,N,08151.707,W,000.0,000.0,211125,000.0,W*6C
$GPGGA,173121.064,4759.357,N,08151.707,W,1,12,1.0,0.0,M,0.0,M,,*7A
$GPRMC,173121.064,A,4759.357,N,08151.707,W,000.0,000.0,211125,000.0,W*6A
$GPGGA,173121.364,4759.357,N,08151.707,W,1,12,1.0,0.0,M,0.0,M,,*79
$GPRMC,173121.364,A,4759.357,N,08151.707,W,000.0,000.0,211125,000.0,W*69
$GPGGA,173121.664,4759.357,N,08151.707,W,1,12,1.0,0.0,M,0.0,M,,*7C
$GPRMC,173121.664,A,4759.357,N,08151.707,W,000.0,000.0,211125,000.0,W*6C
$GPGGA,173121.964,4759.357,N,08151.707,W,1,12,1.0,0.0,M,0.0,M,,*73
$GPRMC,173121.964,A,4759.357,N,08151.707,W,000.0,000.0,211125,000.0,W*63
$GPGGA,173122.264,4759.357,N,08151.707,W,1,12,1.0,0.0,M,0.0,M,,*7B
$GPRMC,173122.264,A,4759.357,N,08151.707,W,000.0,000.0,211125,000.0,W*6B
$GPGGA,173122.564,4759.357,N,08151.707,W,1,12,1.0,0.0,M,0.0,M,,*7C
$GPRMC,173122.564,A,4759.357,N,08151.707,W,000.0,000.0,211125,000.0,W*6C
$GPGGA,173122.864,4759.357,N,08151.707,W,1,12,1.0,0.0,M,0.0,M,,*71
$GPRMC,173122.864,A,4759.357,N,08151.707,W,000.0,000.0,211125,000.0,W*61
$GPGGA,173123.164,4759.357,N,08151.707,W,1,12,1.0,0.0,M,0.0,M,,*79
$GPRMC,173123.164,A,4759.357,N,08151.707,W,000.0,000.0,211125,000.0,W*69
$GPGGA,173123.464,4759.357,N,08151.707,W,1,12,1.0,0.0,M,0.0,M,,*7C
$GPRMC,173123.464,A,4759.357,N,08151.707,W,000.0,000.0,211125,000.0,W*6C
$GPGGA,173123.764,4759.357,N,08151.707,W,1,12,1.0,0.0,M,0.0,M,,*7F
$GPRMC,173123.764,A,4759.357,N,08151.707,W,000.0,000.0,211125,000.0,W*6F
$GPGGA,173124.064,4758.787,N,08152.181,W,1,12,1.0,0.0,M,0.0,M,,*7C
$GPRMC,173124.064,A,4758.787,N,08152.181,W,23477.5,000.0,211125,000.0,W*6C
$GPGGA,173124.364,4758.787,N,08152.181,W,1,12,1.0,0.0,M,0.0,M,,*7F
$GPRMC,173124.364,A,4758.787,N,08152.181,W,000.0,000.0,211125,000.0,W*6F
$GPGGA,173124.664,4758.787,N,08152.181,W,1,12,1.0,0.0,M,0.0,M,,*7A
$GPRMC,173124.664,A,4758.787,N,08152.181,W,000.0,000.0,211125,000.0,W*6A
$GPGGA,173124.964,4758.787,N,08152.181,W,1,12,1.0,0.0,M,0.0,M,,*75
$GPRMC,173124.964,A,4758.787,N,08152.181,W,000.0,000.0,211125,000.0,W*65
$GPGGA,173125.264,4758.787,N,08152.181,W,1,12,1.0,0.0,M,0.0,M,,*7F
$GPRMC,173125.264,A,4758.787,N,08152.181,W,000.0,000.0,211125,000.0,W*6F
$GPGGA,173125.564,4758.787,N,08152.181,W,1,12,1.0,0.0,M,0.0,M,,*78
$GPRMC,173125.564,A,4758.787,N,08152.181,W,000.0,000.0,211125,000.0,W*68
$GPGGA,173125.864,4758.787,N,08152.181,W,1,12,1.0,0.0,M,0.0,M,,*75
$GPRMC,173125.864,A,4758.787,N,08152.181,W,000.0,000.0,211125,000.0,W*65
$GPGGA,173126.164,4758.787,N,08152.181,W,1,12,1.0,0.0,M,0.0,M,,*7F
$GPRMC,173126.164,A,4758.787,N,08152.181,W,000.0,000.0,211125,000.0,W*6F
$GPGGA,173126.464,4758.787,N,08152.181,W,1,12,1.0,0.0,M,0.0,M,,*7A
$GPRMC,173126.464,A,4758.787,N,08152.181,W,000.0,000.0,211125,000.0,W*6A
$GPGGA,173126.764,4758.787,N,08152.181,W,1,12,1.0,0.0,M,0.0,M,,*79
$GPRMC,173126.764,A,4758.787,N,08152.181,W,000.0,000.0,211125,000.0,W*69
$GPGGA,173127.064,4758.787,N,08152.181,W,1,12,1.0,0.0,M,0.0,M,,*7F
$GPRMC,173127.064,A,4758.787,N,08152.181,W,000.0,000.0,211125,000.0,W*6F
$GPGGA,173127.364,4758.787,N,08152.181,W,1,12,1.0,0.0,M,0.0,M,,*7C
$GPRMC,173127.364,A,4758.787,N,08152.181,W,000.0,000.0,211125,000.0,W*6C
$GPGGA,173127.664,4758.787,N,08152.181,W,1,12,1.0,0.0,M,0.0,M,,*79
$GPRMC,173127.664,A,4758.787,N,08152.181,W,000.0,000.0,211125,000.0,W*69
$GPGGA,173127.964,4758.787,N,08152.181,W,1,12,1.0,0.0,M,0.0,M,,*76
$GPRMC,173127.964,A,4758.787,N,08152.181,W,000.0,000.0,211125,000.0,W*66
$GPGGA,173128.264,4758.787,N,08152.181,W,1,12,1.0,0.0,M,0.0,M,,*72
$GPRMC,173128.264,A,4758.787,N,08152.181,W,000.0,000.0,211125,000.0,W*62
$GPGGA,173128.564,4758.787,N,08152.181,W,1,12,1.0,0.0,M,0.0,M,,*75
$GPRMC,173128.564,A,4758.787,N,08152.181,W,000.0,000.0,211125,000.0,W*65
$GPGGA,173128.864,4758.787,N,08152.181,W,1,12,1.0,0.0,M,0.0,M,,*78
$GPRMC,173128.864,A,4758.787,N,08152.181,W,000.0,000.0,211125,000.0,W*68
$GPGGA,173129.164,4758.787,N,08152.181,W,1,12,1.0,0.0,M,0.0,M,,*70
$GPRMC,173129.164,A,4758.787,N,08152.181,W,000.0,000.0,211125,000.0,W*60
$GPGGA,173129.464,4758.787,N,08152.181,W,1,12,1.0,0.0,M,0.0,M,,*75
$GPRMC,173129.464,A,4758.787,N,08152.181,W,000.0,000.0,211125,000.0,W*65
$GPGGA,173129.764,4758.787,N,08152.181,W,1,12,1.0,0.0,M,0.0,M,,*76
$GPRMC,173129.764,A,4758.787,N,08152.181,W,000.0,000.0,211125,000.0,W*66
$GPGGA,173130.064,4758.787,N,08152.181,W,1,12,1.0,0.0,M,0.0,M,,*79
$GPRMC,173130.064,A,4758.787,N,08152.181,W,000.0,000.0,211125,000.0,W*69
$GPGGA,173130.364,4758.787,N,08152.181,W,1,12,1.0,0.0,M,0.0,M,,*7A
$GPRMC,173130.364,A,4758.787,N,08152.181,W,000.0,000.0,211125,000.0,W*6A
$GPGGA,173130.664,4758.787,N,08152.181,W,1,12,1.0,0.0,M,0.0,M,,*7F
$GPRMC,173130.664,A,4758.787,N,08152.181,W,000.0,000.0,211125,000.0,W*6F
$GPGGA,173130.964,4758.787,N,08152.181,W,1,12,1.0,0.0,M,0.0,M,,*70
$GPRMC,173130.964,A,4758.787,N,08152.181,W,000.0,000.0,211125,000.0,W*60
$GPGGA,173131.264,4758.787,N,08152.181,W,1,12,1.0,0.0,M,0.0,M,,*7A
$GPRMC,173131.264,A,4758.787,N,08152.181,W,000.0,000.0,211125,000.0,W*6A
$GPGGA,173131.564,4758.787,N,08152.181,W,1,12,1.0,0.0,M,0.0,M,,*7D
$GPRMC,173131.564,A,4758.787,N,08152.181,W,000.0,000.0,211125,000.0,W*6D
$GPGGA,173131.864,4758.787,N,08152.181,W,1,12,1.0,0.0,M,0.0,M,,*70
$GPRMC,173131.864,A,4758.787,N,08152.181,W,000.0,000.0,211125,000.0,W*60
$GPGGA,173132.164,4758.787,N,08152.181,W,1,12,1.0,0.0,M,0.0,M,,*7A
$GPRMC,173132.164,A,4758.787,N,08152.181,W,000.0,000.0,211125,000.0,W*6A
$GPGGA,173132.464,4758.787,N,08152.181,W,1,12,1.0,0.0,M,0.0,M,,*7F
$GPRMC,173132.464,A,4758.787,N,08152.181,W,000.0,000.0,211125,000.0,W*6F
$GPGGA,173132.764,4758.787,N,08152.181,W,1,12,1.0,0.0,M,0.0,M,,*7C
$GPRMC,173132.764,A,4758.787,N,08152.181,W,000.0,000.0,211125,000.0,W*6C
$GPGGA,173133.064,4758.787,N,08152.181,W,1,12,1.0,0.0,M,0.0,M,,*7A
$GPRMC,173133.064,A,4758.787,N,08152.181,W,000.0,000.0,211125,000.0,W*6A
$GPGGA,173133.364,4758.787,N,08152.181,W,1,12,1.0,0.0,M,0.0,M,,*79
$GPRMC,173133.364,A,4758.787,N,08152.181,W,000.0,000.0,211125,000.0,W*69
$GPGGA,173133.664,4758.787,N,08152.181,W,1,12,1.0,0.0,M,0.0,M,,*7C
$GPRMC,173133.664,A,4758.787,N,08152.181,W,000.0,000.0,211125,000.0,W*6C
$GPGGA,173133.964,4758.787,N,08152.181,W,1,12,1.0,0.0,M,0.0,M,,*73
$GPRMC,173133.964,A,4758.787,N,08152.181,W,000.0,000.0,211125,000.0,W*63
$GPGGA,173134.264,4758.787,N,08152.181,W,1,12,1.0,0.0,M,0.0,M,,*7F
$GPRMC,173134.264,A,4758.787,N,08152.181,W,000.0,000.0,211125,000.0,W*6F
$GPGGA,173134.564,4758.787,N,08152.181,W,1,12,1.0,0.0,M,0.0,M,,*78
$GPRMC,173134.564,A,4758.787,N,08152.181,W,000.0,000.0,211125,000.0,W*68
$GPGGA,173134.864,4758.787,N,08152.181,W,1,12,1.0,0.0,M,0.0,M,,*75
$GPRMC,173134.864,A,4758.787,N,08152.181,W,000.0,000.0,211125,000.0,W*65
$GPGGA,173135.164,4758.787,N,08152.181,W,1,12,1.0,0.0,M,0.0,M,,*7D
$GPRMC,173135.164,A,4758.787,N,08152.181,W,000.0,000.0,211125,000.0,W*6D
$GPGGA,173135.464,4758.787,N,08152.181,W,1,12,1.0,0.0,M,0.0,M,,*78
$GPRMC,173135.464,A,4758.787,N,08152.181,W,000.0,000.0,211125,000.0,W*68
$GPGGA,173135.764,4758.787,N,08152.181,W,1,12,1.0,0.0,M,0.0,M,,*7B
$GPRMC,173135.764,A,4758.787,N,08152.181,W,000.0,000.0,211125,000.0,W*6B
$GPGGA,173136.064,4758.787,N,08152.181,W,1,12,1.0,0.0,M,0.0,M,,*7F
$GPRMC,173136.064,A,4758.787,N,08152.181,W,000.0,000.0,211125,000.0,W*6F
$GPGGA,173136.364,4758.787,N,08152.181,W,1,12,1.0,0.0,M,0.0,M,,*7C
$GPRMC,173136.364,A,4758.787,N,08152.181,W,000.0,000.0,211125,000.0,W*6C
$GPGGA,173136.664,4758.787,N,08152.181,W,1,12,1.0,0.0,M,0.0,M,,*79
$GPRMC,173136.664,A,4758.787,N,08152.181,W,000.0,000.0,211125,000.0,W*69
$GPGGA,173136.964,4758.787,N,08152.181,W,1,12,1.0,0.0,M,0.0,M,,*76
$GPRMC,173136.964,A,4758.787,N,08152.181,W,000.0,000.0,211125,000.0,W*66
$GPGGA,173137.264,4758.787,N,08152.181,W,1,12,1.0,0.0,M,0.0,M,,*7C
$GPRMC,173137.264,A,4758.787,N,08152.181,W,000.0,000.0,211125,000.0,W*6C
$GPGGA,173137.564,4758.787,N,08152.181,W,1,12,1.0,0.0,M,0.0,M,,*7B
$GPRMC,173137.564,A,4758.787,N,08152.181,W,000.0,000.0,211125,000.0,W*6B
$GPGGA,173137.864,4758.787,N,08152.181,W,1,12,1.0,0.0,M,0.0,M,,*76
$GPRMC,173137.864,A,4758.787,N,08152.181,W,000.0,000.0,211125,000.0,W*66
$GPGGA,173138.164,4758.787,N,08152.181,W,1,12,1.0,0.0,M,0.0,M,,*70
$GPRMC,173138.164,A,4758.787,N,08152.181,W,000.0,000.0,211125,000.0,W*60
$GPGGA,173138.464,4758.787,N,08152.181,W,1,12,1.0,0.0,M,0.0,M,,*75
$GPRMC,173138.464,A,4758.787,N,08152.181,W,000.0,000.0,211125,000.0,W*65
$GPGGA,173138.764,4758.787,N,08152.181,W,1,12,1.0,0.0,M,0.0,M,,*76
$GPRMC,173138.764,A,4758.787,N,08152.181,W,000.0,000.0,211125,000.0,W*66
$GPGGA,173139.064,4758.787,N,08152.181,W,1,12,1.0,0.0,M,0.0,M,,*70
$GPRMC,173139.064,A,4758.787,N,08152.181,W,000.0,000.0,211125,000.0,W*60
$GPGGA,173139.364,4758.787,N,08152.181,W,1,12,1.0,0.0,M,0.0,M,,*73
$GPRMC,173139.364,A,4758.787,N,08152.181,W,000.0,000.0,211125,000.0,W*63
$GPGGA,173139.664,4758.787,N,08152.181,W,1,12,1.0,0.0,M,0.0,M,,*76
$GPRMC,173139.664,A,4758.787,N,08152.181,W,000.0,000.0,211125,000.0,W*66
$GPGGA,173139.964,4758.787,N,08152.181,W,1,12,1.0,0.0,M,0.0,M,,*79
$GPRMC,173139.964,A,4758.787,N,08152.181,W,000.0,000.0,211125,000.0,W*69
$GPGGA,173140.264,4758.787,N,08152.181,W,1,12,1.0,0.0,M,0.0,M,,*7C
$GPRMC,173140.264,A,4758.787,N,08152.181,W,000.0,000.0,211125,000.0,W*6C
$GPGGA,173140.564,4758.787,N,08152.181,W,1,12,1.0,0.0,M,0.0,M,,*7B
$GPRMC,173140.564,A,4758.787,N,08152.181,W,000.0,000.0,211125,000.0,W*6B
$GPGGA,173140.864,4758.787,N,08152.181,W,1,12,1.0,0.0,M,0.0,M,,*76
$GPRMC,173140.864,A,4758.787,N,08152.181,W,000.0,000.0,211125,000.0,W*66
$GPGGA,173141.164,4758.787,N,08152.181,W,1,12,1.0,0.0,M,0.0,M,,*7E
$GPRMC,173141.164,A,4758.787,N,08152.181,W,000.0,000.0,211125,000.0,W*6E
$GPGGA,173141.464,4758.787,N,08152.181,W,1,12,1.0,0.0,M,0.0,M,,*7B
$GPRMC,173141.464,A,4758.787,N,08152.181,W,000.0,000.0,211125,000.0,W*6B
$GPGGA,173141.764,4758.787,N,08152.181,W,1,12,1.0,0.0,M,0.0,M,,*78
$GPRMC,173141.764,A,4758.787,N,08152.181,W,000.0,000.0,211125,000.0,W*68
$GPGGA,173142.064,4758.787,N,08152.181,W,1,12,1.0,0.0,M,0.0,M,,*7C
$GPRMC,173142.064,A,4758.787,N,08152.181,W,000.0,000.0,211125,000.0,W*6C
$GPGGA,173142.364,4758.787,N,08152.181,W,1,12,1.0,0.0,M,0.0,M,,*7F
$GPRMC,173142.364,A,4758.787,N,08152.181,W,000.0,000.0,211125,000.0,W*6F
$GPGGA,173142.664,4758.787,N,08152.181,W,1,12,1.0,0.0,M,0.0,M,,*7A
$GPRMC,173142.664,A,4758.787,N,08152.181,W,000.0,000.0,211125,000.0,W*6A
$GPGGA,173142.964,4758.787,N,08152.181,W,1,12,1.0,0.0,M,0.0,M,,*75
$GPRMC,173142.964,A,4758.787,N,08152.181,W,000.0,000.0,211125,000.0,W*65
$GPGGA,173143.264,4758.787,N,08152.181,W,1,12,1.0,0.0,M,0.0,M,,*7F
$GPRMC,173143.264,A,4758.787,N,08152.181,W,000.0,000.0,211125,000.0,W*6F
$GPGGA,173143.564,4758.787,N,08152.181,W,1,12,1.0,0.0,M,0.0,M,,*78
$GPRMC,173143.564,A,4758.787,N,08152.181,W,000.0,000.0,211125,000.0,W*68
$GPGGA,173143.864,4758.787,N,08152.181,W,1,12,1.0,0.0,M,0.0,M,,*75
$GPRMC,173143.864,A,4758.787,N,08152.181,W,000.0,000.0,211125,000.0,W*65
$GPGGA,173144.164,4758.787,N,08152.181,W,1,12,1.0,0.0,M,0.0,M,,*7B
$GPRMC,173144.164,A,4758.787,N,08152.181,W,000.0,000.0,211125,000.0,W*6B
$GPGGA,173144.464,4758.787,N,08152.181,W,1,12,1.0,0.0,M,0.0,M,,*7E
$GPRMC,173144.464,A,4758.787,N,08152.181,W,000.0,000.0,211125,000.0,W*6E
$GPGGA,173144.764,4758.787,N,08152.181,W,1,12,1.0,0.0,M,0.0,M,,*7D
$GPRMC,173144.764,A,4758.787,N,08152.181,W,000.0,000.0,211125,000.0,W*6D
$GPGGA,173145.064,4758.787,N,08152.181,W,1,12,1.0,0.0,M,0.0,M,,*7B
$GPRMC,173145.064,A,4758.787,N,08152.181,W,000.0,000.0,211125,000.0,W*6B
$GPGGA,173145.364,4758.787,N,08152.181,W,1,12,1.0,0.0,M,0.0,M,,*78
$GPRMC,173145.364,A,4758.787,N,08152.181,W,000.0,000.0,211125,000.0,W*68
$GPGGA,173145.664,4758.787,N,08152.181,W,1,12,1.0,0.0,M,0.0,M,,*7D
$GPRMC,173145.664,A,4758.787,N,08152.181,W,000.0,000.0,211125,000.0,W*6D
$GPGGA,173145.964,4758.787,N,08152.181,W,1,12,1.0,0.0,M,0.0,M,,*72
$GPRMC,173145.964,A,4758.787,N,08152.181,W,000.0,000.0,211125,000.0,W*62
$GPGGA,173146.264,4758.787,N,08152.181,W,1,12,1.0,0.0,M,0.0,M,,*7A
$GPRMC,173146.264,A,4758.787,N,08152.181,W,000.0,000.0,211125,000.0,W*6A
$GPGGA,173146.564,4758.787,N,08152.181,W,1,12,1.0,0.0,M,0.0,M,,*7D
$GPRMC,173146.564,A,4758.787,N,08152.181,W,000.0,000.0,211125,000.0,W*6D
$GPGGA,173146.864,4758.787,N,08152.181,W,1,12,1.0,0.0,M,0.0,M,,*70
$GPRMC,173146.864,A,4758.787,N,08152.181,W,000.0,000.0,211125,000.0,W*60
$GPGGA,173147.164,4758.787,N,08152.181,W,1,12,1.0,0.0,M,0.0,M,,*78
$GPRMC,173147.164,A,4758.787,N,08152.181,W,000.0,000.0,211125,000.0,W*68
$GPGGA,173147.464,4758.787,N,08152.181,W,1,12,1.0,0.0,M,0.0,M,,*7D
$GPRMC,173147.464,A,4758.787,N,08152.181,W,000.0,000.0,211125,000.0,W*6D
$GPGGA,173147.764,4758.787,N,08152.181,W,1,12,1.0,0.0,M,0.0,M,,*7E
$GPRMC,173147.764,A,4758.787,N,08152.181,W,000.0,000.0,211125,000.0,W*6E
$GPGGA,173148.064,4758.787,N,08152.181,W,1,12,1.0,0.0,M,0.0,M,,*76
$GPRMC,173148.064,A,4758.787,N,08152.181,W,000.0,000.0,211125,000.0,W*66
$GPGGA,173148.364,4758.787,N,08152.181,W,1,12,1.0,0.0,M,0.0,M,,*75
$GPRMC,173148.364,A,4758.787,N,08152.181,W,000.0,000.0,211125,000.0,W*65
$GPGGA,173148.664,4758.787,N,08152.181,W,1,12,1.0,0.0,M,0.0,M,,*70
$GPRMC,173148.664,A,4758.787,N,08152.181,W,000.0,000.0,211125,000.0,W*60
$GPGGA,173148.964,4758.787,N,08152.181,W,1,12,1.0,0.0,M,0.0,M,,*7F
$GPRMC,173148.964,A,4758.787,N,08152.181,W,000.0,000.0,211125,000.0,W*6F
$GPGGA,173149.264,4758.787,N,08152.181,W,1,12,1.0,0.0,M,0.0,M,,*75
$GPRMC,173149.264,A,4758.787,N,08152.181,W,000.0,000.0,211125,000.0,W*65
$GPGGA,173149.564,4758.787,N,08152.181,W,1,12,1.0,0.0,M,0.0,M,,*72
$GPRMC,173149.564,A,4758.787,N,08152.181,W,000.0,000.0,211125,000.0,W*62
$GPGGA,173149.864,4758.787,N,08152.181,W,1,12,1.0,0.0,M,0.0,M,,*7F
$GPRMC,173149.864,A,4758.787,N,08152.181,W,000.0,000.0,211125,000.0,W*6F
$GPGGA,173150.164,4758.787,N,08152.181,W,1,12,1.0,0.0,M,0.0,M,,*7E
$GPRMC,173150.164,A,4758.787,N,08152.181,W,000.0,000.0,211125,000.0,W*6E
$GPGGA,173150.464,4758.787,N,08152.181,W,1,12,1.0,0.0,M,0.0,M,,*7B
$GPRMC,173150.464,A,4758.787,N,08152.181,W,000.0,000.0,211125,000.0,W*6B
$GPGGA,173150.764,4758.787,N,08152.181,W,1,12,1.0,0.0,M,0.0,M,,*78
$GPRMC,173150.764,A,4758.787,N,08152.181,W,000.0,000.0,211125,000.0,W*68
$GPGGA,173151.064,4758.787,N,08152.181,W,1,12,1.0,0.0,M,0.0,M,,*7E
$GPRMC,173151.064,A,4758.787,N,08152.181,W,000.0,000.0,211125,000.0,W*6E
$GPGGA,173151.364,4758.787,N,08152.181,W,1,12,1.0,0.0,M,0.0,M,,*7D
$GPRMC,173151.364,A,4758.787,N,08152.181,W,000.0,000.0,211125,000.0,W*6D
$GPGGA,173151.664,4758.787,N,08152.181,W,1,12,1.0,0.0,M,0.0,M,,*78
$GPRMC,173151.664,A,4758.787,N,08152.181,W,000.0,000.0,211125,000.0,W*68
$GPGGA,173151.964,4758.787,N,08152.181,W,1,12,1.0,0.0,M,0.0,M,,*77
$GPRMC,173151.964,A,4758.787,N,08152.181,W,000.0,000.0,211125,000.0,W*67
$GPGGA,173152.264,4758.787,N,08152.181,W,1,12,1.0,0.0,M,0.0,M,,*7F
$GPRMC,173152.264,A,4758.787,N,08152.181,W,000.0,000.0,211125,000.0,W*6F
$GPGGA,173152.564,4758.787,N,08152.181,W,1,12,1.0,0.0,M,0.0,M,,*78
$GPRMC,173152.564,A,4758.787,N,08152.181,W,000.0,000.0,211125,000.0,W*68
$GPGGA,173152.864,4758.787,N,08152.181,W,1,12,1.0,0.0,M,0.0,M,,*75
$GPRMC,173152.864,A,4758.787,N,08152.181,W,000.0,000.0,211125,000.0,W*65
$GPGGA,173153.164,4758.787,N,08152.181,W,1,12,1.0,0.0,M,0.0,M,,*7D
$GPRMC,173153.164,A,4758.787,N,08152.181,W,000.0,000.0,211125,000.0,W*6D
$GPGGA,173153.464,4758.787,N,08152.181,W,1,12,1.0,0.0,M,0.0,M,,*78
$GPRMC,173153.464,A,4758.787,N,08152.181,W,000.0,000.0,211125,000.0,W*68
$GPGGA,173153.764,4758.787,N,08152.181,W,1,12,1.0,0.0,M,0.0,M,,*7B
$GPRMC,173153.764,A,4758.787,N,08152.181,W,000.0,000.0,211125,000.0,W*6B
$GPGGA,173154.064,4758.787,N,08152.181,W,1,12,1.0,0.0,M,0.0,M,,*7B
$GPRMC,173154.064,A,4758.787,N,08152.181,W,000.0,000.0,211125,000.0,W*6B
$GPGGA,173154.364,4758.787,N,08152.181,W,1,12,1.0,0.0,M,0.0,M,,*78
$GPRMC,173154.364,A,4758.787,N,08152.181,W,000.0,000.0,211125,000.0,W*68
$GPGGA,173154.664,4758.787,N,08152.181,W,1,12,1.0,0.0,M,0.0,M,,*7D
$GPRMC,173154.664,A,4758.787,N,08152.181,W,000.0,000.0,211125,000.0,W*6D
$GPGGA,173154.964,4758.787,N,08152.181,W,1,12,1.0,0.0,M,0.0,M,,*72
$GPRMC,173154.964,A,4758.787,N,08152.181,W,000.0,000.0,211125,000.0,W*62
$GPGGA,173155.264,4758.787,N,08152.181,W,1,12,1.0,0.0,M,0.0,M,,*78
$GPRMC,173155.264,A,4758.787,N,08152.181,W,000.0,000.0,211125,000.0,W*68
