interval:100
data
$GPGGA,172947.164,4759.212,N,08150.909,W,1,12,1.0,0.0,M,0.0,M,,*73
$GPGSA,A,3,01,02,03,04,05,06,07,08,09,10,11,12,1.0,1.0,1.0*30
$GPRMC,172947.164,A,4759.212,N,08150.909,W,000.0,000.0,211125,000.0,W*63
$GPGGA,172947.264,4759.212,N,08150.909,W,1,12,1.0,0.0,M,0.0,M,,*70
$GPGSA,A,3,01,02,03,04,05,06,07,08,09,10,11,12,1.0,1.0,1.0*30
$GPRMC,172947.264,A,4759.212,N,08150.909,W,000.0,000.0,211125,000.0,W*60
$GPGGA,172947.364,4759.212,N,08150.909,W,1,12,1.0,0.0,M,0.0,M,,*71
$GPGSA,A,3,01,02,03,04,05,06,07,08,09,10,11,12,1.0,1.0,1.0*30
$GPRMC,172947.364,A,4759.212,N,08150.909,W,000.0,000.0,211125,000.0,W*61
$GPGGA,172947.464,4759.212,N,08150.909,W,1,12,1.0,0.0,M,0.0,M,,*76
$GPGSA,A,3,01,02,03,04,05,06,07,08,09,10,11,12,1.0,1.0,1.0*30
$GPRMC,172947.464,A,4759.212,N,08150.909,W,000.0,000.0,211125,000.0,W*66
$GPGGA,172947.564,4759.212,N,08150.909,W,1,12,1.0,0.0,M,0.0,M,,*77
$GPGSA,A,3,01,02,03,04,05,06,07,08,09,10,11,12,1.0,1.0,1.0*30
$GPRMC,172947.564,A,4759.212,N,08150.909,W,000.0,000.0,211125,000.0,W*67
$GPGGA,172947.664,4759.212,N,08150.909,W,1,12,1.0,0.0,M,0.0,M,,*74
$GPGSA,A,3,01,02,03,04,05,06,07,08,09,10,11,12,1.0,1.0,1.0*30
$GPRMC,172947.664,A,4759.212,N,08150.909,W,000.0,000.0,211125,000.0,W*64
$GPGGA,172947.764,4759.212,N,08150.909,W,1,12,1.0,0.0,M,0.0,M,,*75
$GPGSA,A,3,01,02,03,04,05,06,07,08,09,10,11,12,1.0,1.0,1.0*30
$GPRMC,172947.764,A,4759.212,N,08150.909,W,000.0,000.0,211125,000.0,W*65
$GPGGA,172947.864,4759.212,N,08150.909,W,1,12,1.0,0.0,M,0.0,M,,*7A
$GPGSA,A,3,01,02,03,04,05,06,07,08,09,10,11,12,1.0,1.0,1.0*30
$GPRMC,172947.864,A,4759.212,N,08150.909,W,000.0,000.0,211125,000.0,W*6A
$GPGGA,172947.964,4759.212,N,08150.909,W,1,12,1.0,0.0,M,0.0,M,,*7B
$GPGSA,A,3,01,02,03,04,05,06,07,08,09,10,11,12,1.0,1.0,1.0*30
$GPRMC,172947.964,A,4759.212,N,08150.909,W,000.0,000.0,211125,000.0,W*6B
$GPGGA,172948.064,4759.212,N,08150.909,W,1,12,1.0,0.0,M,0.0,M,,*7D
$GPGSA,A,3,01,02,03,04,05,06,07,08,09,10,11,12,1.0,1.0,1.0*30
$GPRMC,172948.064,A,4759.212,N,08150.909,W,000.0,000.0,211125,000.0,W*6D
$GPGGA,172948.164,4759.212,N,08150.909,W,1,12,1.0,0.0,M,0.0,M,,*7C
$GPGSA,A,3,01,02,03,04,05,06,07,08,09,10,11,12,1.0,1.0,1.0*30
$GPRMC,172948.164,A,4759.212,N,08150.909,W,000.0,000.0,211125,000.0,W*6C
$GPGGA,172948.264,4759.212,N,08150.909,W,1,12,1.0,0.0,M,0.0,M,,*7F
$GPGSA,A,3,01,02,03,04,05,06,07,08,09,10,11,12,1.0,1.0,1.0*30
$GPRMC,172948.264,A,4759.212,N,08150.909,W,000.0,000.0,211125,000.0,W*6F
$GPGGA,172948.364,4759.212,N,08150.909,W,1,12,1.0,0.0,M,0.0,M,,*7E
$GPGSA,A,3,01,02,03,04,05,06,07,08,09,10,11,12,1.0,1.0,1.0*30
$GPRMC,172948.364,A,4759.212,N,08150.909,W,000.0,000.0,211125,000.0,W*6E
$GPGGA,172948.464,4759.212,N,08150.909,W,1,12,1.0,0.0,M,0.0,M,,*79
$GPGSA,A,3,01,02,03,04,05,06,07,08,09,10,11,12,1.0,1.0,1.0*30
$GPRMC,172948.464,A,4759.212,N,08150.909,W,000.0,000.0,211125,000.0,W*69
$GPGGA,172948.564,4759.212,N,08150.909,W,1,12,1.0,0.0,M,0.0,M,,*78
$GPGSA,A,3,01,02,03,04,05,06,07,08,09,10,11,12,1.0,1.0,1.0*30
$GPRMC,172948.564,A,4759.212,N,08150.909,W,000.0,000.0,211125,000.0,W*68
$GPGGA,172948.664,4759.212,N,08150.909,W,1,12,1.0,0.0,M,0.0,M,,*7B
$GPGSA,A,3,01,02,03,04,05,06,07,08,09,10,11,12,1.0,1.0,1.0*30
$GPRMC,172948.664,A,4759.212,N,08150.909,W,000.0,000.0,211125,000.0,W*6B
$GPGGA,172948.764,4759.212,N,08150.909,W,1,12,1.0,0.0,M,0.0,M,,*7A
$GPGSA,A,3,01,02,03,04,05,06,07,08,09,10,11,12,1.0,1.0,1.0*30
$GPRMC,172948.764,A,4759.212,N,08150.909,W,000.0,000.0,211125,000.0,W*6A
$GPGGA,172948.864,4759.212,N,08150.909,W,1,12,1.0,0.0,M,0.0,M,,*75
$GPGSA,A,3,01,02,03,04,05,06,07,08,09,10,11,12,1.0,1.0,1.0*30
$GPRMC,172948.864,A,4759.212,N,08150.909,W,000.0,000.0,211125,000.0,W*65
$GPGGA,172948.964,4759.212,N,08150.909,W,1,12,1.0,0.0,M,0.0,M,,*74
$GPGSA,A,3,01,02,03,04,05,06,07,08,09,10,11,12,1.0,1.0,1.0*30
$GPRMC,172948.964,A,4759.212,N,08150.909,W,000.0,000.0,211125,000.0,W*64
$GPGGA,172949.064,4759.212,N,08150.909,W,1,12,1.0,0.0,M,0.0,M,,*7C
$GPGSA,A,3,01,02,03,04,05,06,07,08,09,10,11,12,1.0,1.0,1.0*30
$GPRMC,172949.064,A,4759.212,N,08150.909,W,000.0,000.0,211125,000.0,W*6C
$GPGGA,172949.164,4759.212,N,08150.909,W,1,12,1.0,0.0,M,0.0,M,,*7D
$GPGSA,A,3,01,02,03,04,05,06,07,08,09,10,11,12,1.0,1.0,1.0*30
$GPRMC,172949.164,A,4759.212,N,08150.909,W,000.0,000.0,211125,000.0,W*6D
$GPGGA,172949.264,4759.212,N,08150.909,W,1,12,1.0,0.0,M,0.0,M,,*7E
$GPGSA,A,3,01,02,03,04,05,06,07,08,09,10,11,12,1.0,1.0,1.0*30
$GPRMC,172949.264,A,4759.212,N,08150.909,W,000.0,000.0,211125,000.0,W*6E
$GPGGA,172949.364,4759.212,N,08150.909,W,1,12,1.0,0.0,M,0.0,M,,*7F
$GPGSA,A,3,01,02,03,04,05,06,07,08,09,10,11,12,1.0,1.0,1.0*30
$GPRMC,172949.364,A,4759.212,N,08150.909,W,000.0,000.0,211125,000.0,W*6F
$GPGGA,172949.464,4759.212,N,08150.909,W,1,12,1.0,0.0,M,0.0,M,,*78
$GPGSA,A,3,01,02,03,04,05,06,07,08,09,10,11,12,1.0,1.0,1.0*30
$GPRMC,172949.464,A,4759.212,N,08150.909,W,000.0,000.0,211125,000.0,W*68
$GPGGA,172949.564,4759.212,N,08150.909,W,1,12,1.0,0.0,M,0.0,M,,*79
$GPGSA,A,3,01,02,03,04,05,06,07,08,09,10,11,12,1.0,1.0,1.0*30
$GPRMC,172949.564,A,4759.212,N,08150.909,W,000.0,000.0,211125,000.0,W*69
$GPGGA,172949.664,4759.212,N,08150.909,W,1,12,1.0,0.0,M,0.0,M,,*7A
$GPGSA,A,3,01,02,03,04,05,06,07,08,09,10,11,12,1.0,1.0,1.0*30
$GPRMC,172949.664,A,4759.212,N,08150.909,W,000.0,000.0,211125,000.0,W*6A
$GPGGA,172949.764,4759.212,N,08150.909,W,1,12,1.0,0.0,M,0.0,M,,*7B
$GPGSA,A,3,01,02,03,04,05,06,07,08,09,10,11,12,1.0,1.0,1.0*30
$GPRMC,172949.764,A,4759.212,N,08150.909,W,000.0,000.0,211125,000.0,W*6B
$GPGGA,172949.864,4759.212,N,08150.909,W,1,12,1.0,0.0,M,0.0,M,,*74
$GPGSA,A,3,01,02,03,04,05,06,07,08,09,10,11,12,1.0,1.0,1.0*30
$GPRMC,172949.864,A,4759.212,N,08150.909,W,000.0,000.0,211125,000.0,W*64
$GPGGA,172949.964,4759.212,N,08150.909,W,1,12,1.0,0.0,M,0.0,M,,*75
$GPGSA,A,3,01,02,03,04,05,06,07,08,09,10,11,12,1.0,1.0,1.0*30
$GPRMC,172949.964,A,4759.212,N,08150.909,W,000.0,000.0,211125,000.0,W*65
$GPGGA,172950.064,4759.212,N,08150.909,W,1,12,1.0,0.0,M,0.0,M,,*74
$GPGSA,A,3,01,02,03,04,05,06,07,08,09,10,11,12,1.0,1.0,1.0*30
$GPRMC,172950.064,A,4759.212,N,08150.909,W,000.0,000.0,211125,000.0,W*64
$GPGGA,172950.164,4759.212,N,08150.909,W,1,12,1.0,0.0,M,0.0,M,,*75
$GPGSA,A,3,01,02,03,04,05,06,07,08,09,10,11,12,1.0,1.0,1.0*30
$GPRMC,172950.164,A,4759.212,N,08150.909,W,000.0,000.0,211125,000.0,W*65
$GPGGA,172950.264,4759.212,N,08150.909,W,1,12,1.0,0.0,M,0.0,M,,*76
$GPGSA,A,3,01,02,03,04,05,06,07,08,09,10,11,12,1.0,1.0,1.0*30
$GPRMC,172950.264,A,4759.212,N,08150.909,W,000.0,000.0,211125,000.0,W*66
$GPGGA,172950.364,4759.212,N,08150.909,W,1,12,1.0,0.0,M,0.0,M,,*77
$GPGSA,A,3,01,02,03,04,05,06,07,08,09,10,11,12,1.0,1.0,1.0*30
$GPRMC,172950.364,A,4759.212,N,08150.909,W,000.0,000.0,211125,000.0,W*67
$GPGGA,172950.464,4759.212,N,08150.909,W,1,12,1.0,0.0,M,0.0,M,,*70
$GPGSA,A,3,01,02,03,04,05,06,07,08,09,10,11,12,1.0,1.0,1.0*30
$GPRMC,172950.464,A,4759.212,N,08150.909,W,000.0,000.0,211125,000.0,W*60
$GPGGA,172950.564,4759.212,N,08150.909,W,1,12,1.0,0.0,M,0.0,M,,*71
$GPGSA,A,3,01,02,03,04,05,06,07,08,09,10,11,12,1.0,1.0,1.0*30
$GPRMC,172950.564,A,4759.212,N,08150.909,W,000.0,000.0,211125,000.0,W*61
$GPGGA,172950.664,4759.212,N,08150.909,W,1,12,1.0,0.0,M,0.0,M,,*72
$GPGSA,A,3,01,02,03,04,05,06,07,08,09,10,11,12,1.0,1.0,1.0*30
$GPRMC,172950.664,A,4759.212,N,08150.909,W,000.0,000.0,211125,000.0,W*62
$GPGGA,172950.764,4759.212,N,08150.909,W,1,12,1.0,0.0,M,0.0,M,,*73
$GPGSA,A,3,01,02,03,04,05,06,07,08,09,10,11,12,1.0,1.0,1.0*30
$GPRMC,172950.764,A,4759.212,N,08150.909,W,000.0,000.0,211125,000.0,W*63
$GPGGA,172950.864,4759.212,N,08150.909,W,1,12,1.0,0.0,M,0.0,M,,*7C
$GPGSA,A,3,01,02,03,04,05,06,07,08,09,10,11,12,1.0,1.0,1.0*30
$GPRMC,172950.864,A,4759.212,N,08150.909,W,000.0,000.0,211125,000.0,W*6C
$GPGGA,172950.964,4759.212,N,08150.909,W,1,12,1.0,0.0,M,0.0,M,,*7D
$GPGSA,A,3,01,02,03,04,05,06,07,08,09,10,11,12,1.0,1.0,1.0*30
$GPRMC,172950.964,A,4759.212,N,08150.909,W,000.0,000.0,211125,000.0,W*6D
$GPGGA,172951.064,4759.212,N,08150.909,W,1,12,1.0,0.0,M,0.0,M,,*75
$GPGSA,A,3,01,02,03,04,05,06,07,08,09,10,11,12,1.0,1.0,1.0*30
$GPRMC,172951.064,A,4759.212,N,08150.909,W,000.0,000.0,211125,000.0,W*65
$GPGGA,172951.164,4759.212,N,08150.909,W,1,12,1.0,0.0,M,0.0,M,,*74
$GPGSA,A,3,01,02,03,04,05,06,07,08,09,10,11,12,1.0,1.0,1.0*30
$GPRMC,172951.164,A,4759.212,N,08150.909,W,000.0,000.0,211125,000.0,W*64
$GPGGA,172951.264,4759.212,N,08150.909,W,1,12,1.0,0.0,M,0.0,M,,*77
$GPGSA,A,3,01,02,03,04,05,06,07,08,09,10,11,12,1.0,1.0,1.0*30
$GPRMC,172951.264,A,4759.212,N,08150.909,W,000.0,000.0,211125,000.0,W*67
$GPGGA,172951.364,4759.212,N,08150.909,W,1,12,1.0,0.0,M,0.0,M,,*76
$GPGSA,A,3,01,02,03,04,05,06,07,08,09,10,11,12,1.0,1.0,1.0*30
$GPRMC,172951.364,A,4759.212,N,08150.909,W,000.0,000.0,211125,000.0,W*66
$GPGGA,172951.464,4759.212,N,08150.909,W,1,12,1.0,0.0,M,0.0,M,,*71
$GPGSA,A,3,01,02,03,04,05,06,07,08,09,10,11,12,1.0,1.0,1.0*30
$GPRMC,172951.464,A,4759.212,N,08150.909,W,000.0,000.0,211125,000.0,W*61
$GPGGA,172951.564,4759.212,N,08150.909,W,1,12,1.0,0.0,M,0.0,M,,*70
$GPGSA,A,3,01,02,03,04,05,06,07,08,09,10,11,12,1.0,1.0,1.0*30
$GPRMC,172951.564,A,4759.212,N,08150.909,W,000.0,000.0,211125,000.0,W*60
$GPGGA,172951.664,4759.212,N,08150.909,W,1,12,1.0,0.0,M,0.0,M,,*73
$GPGSA,A,3,01,02,03,04,05,06,07,08,09,10,11,12,1.0,1.0,1.0*30
$GPRMC,172951.664,A,4759.212,N,08150.909,W,000.0,000.0,211125,000.0,W*63
$GPGGA,172951.764,4759.212,N,08150.909,W,1,12,1.0,0.0,M,0.0,M,,*72
$GPGSA,A,3,01,02,03,04,05,06,07,08,09,10,11,12,1.0,1.0,1.0*30
$GPRMC,172951.764,A,4759.212,N,08150.909,W,000.0,000.0,211125,000.0,W*62
$GPGGA,172951.864,4759.212,N,08150.909,W,1,12,1.0,0.0,M,0.0,M,,*7D
$GPGSA,A,3,01,02,03,04,05,06,07,08,09,10,11,12,1.0,1.0,1.0*30
$GPRMC,172951.864,A,4759.212,N,08150.909,W,000.0,000.0,211125,000.0,W*6D
$GPGGA,172951.964,4759.212,N,08150.909,W,1,12,1.0,0.0,M,0.0,M,,*7C
$GPGSA,A,3,01,02,03,04,05,06,07,08,09,10,11,12,1.0,1.0,1.0*30
$GPRMC,172951.964,A,4759.212,N,08150.909,W,000.0,000.0,211125,000.0,W*6C
$GPGGA,172952.064,4759.212,N,08150.909,W,1,12,1.0,0.0,M,0.0,M,,*76
$GPGSA,A,3,01,02,03,04,05,06,07,08,09,10,11,12,1.0,1.0,1.0*30
$GPRMC,172952.064,A,4759.212,N,08150.909,W,000.0,000.0,211125,000.0,W*66
$GPGGA,172952.164,4759.212,N,08150.909,W,1,12,1.0,0.0,M,0.0,M,,*77
$GPGSA,A,3,01,02,03,04,05,06,07,08,09,10,11,12,1.0,1.0,1.0*30
$GPRMC,172952.164,A,4759.212,N,08150.909,W,000.0,000.0,211125,000.0,W*67
$GPGGA,172952.264,4759.212,N,08150.909,W,1,12,1.0,0.0,M,0.0,M,,*74
$GPGSA,A,3,01,02,03,04,05,06,07,08,09,10,11,12,1.0,1.0,1.0*30
$GPRMC,172952.264,A,4759.212,N,08150.909,W,000.0,000.0,211125,000.0,W*64
$GPGGA,172952.364,4759.212,N,08150.909,W,1,12,1.0,0.0,M,0.0,M,,*75
$GPGSA,A,3,01,02,03,04,05,06,07,08,09,10,11,12,1.0,1.0,1.0*30
$GPRMC,172952.364,A,4759.212,N,08150.909,W,000.0,000.0,211125,000.0,W*65
$GPGGA,172952.464,4759.212,N,08150.909,W,1,12,1.0,0.0,M,0.0,M,,*72
$GPGSA,A,3,01,02,03,04,05,06,07,08,09,10,11,12,1.0,1.0,1.0*30
$GPRMC,172952.464,A,4759.212,N,08150.909,W,000.0,000.0,211125,000.0,W*62
$GPGGA,172952.564,4759.212,N,08150.909,W,1,12,1.0,0.0,M,0.0,M,,*73
$GPGSA,A,3,01,02,03,04,05,06,07,08,09,10,11,12,1.0,1.0,1.0*30
$GPRMC,172952.564,A,4759.212,N,08150.909,W,000.0,000.0,211125,000.0,W*63
$GPGGA,172952.664,4759.212,N,08150.909,W,1,12,1.0,0.0,M,0.0,M,,*70
$GPGSA,A,3,01,02,03,04,05,06,07,08,09,10,11,12,1.0,1.0,1.0*30
$GPRMC,172952.664,A,4759.212,N,08150.909,W,000.0,000.0,211125,000.0,W*60
$GPGGA,172952.764,4759.212,N,08150.909,W,1,12,1.0,0.0,M,0.0,M,,*71
$GPGSA,A,3,01,02,03,04,05,06,07,08,09,10,11,12,1.0,1.0,1.0*30
$GPRMC,172952.764,A,4759.212,N,08150.909,W,000.0,000.0,211125,000.0,W*61
$GPGGA,172952.864,4759.212,N,08150.909,W,1,12,1.0,0.0,M,0.0,M,,*7E
$GPGSA,A,3,01,02,03,04,05,06,07,08,09,10,11,12,1.0,1.0,1.0*30
$GPRMC,172952.864,A,4759.212,N,08150.909,W,000.0,000.0,211125,000.0,W*6E
$GPGGA,172952.964,4759.212,N,08150.909,W,1,12,1.0,0.0,M,0.0,M,,*7F
$GPGSA,A,3,01,02,03,04,05,06,07,08,09,10,11,12,1.0,1.0,1.0*30
$GPRMC,172952.964,A,4759.212,N,08150.909,W,000.0,000.0,211125,000.0,W*6F
$GPGGA,172953.064,4759.212,N,08150.909,W,1,12,1.0,0.0,M,0.0,M,,*77
$GPGSA,A,3,01,02,03,04,05,06,07,08,09,10,11,12,1.0,1.0,1.0*30
$GPRMC,172953.064,A,4759.212,N,08150.909,W,000.0,000.0,211125,000.0,W*67
$GPGGA,172953.164,4759.212,N,08150.909,W,1,12,1.0,0.0,M,0.0,M,,*76
$GPGSA,A,3,01,02,03,04,05,06,07,08,09,10,11,12,1.0,1.0,1.0*30
$GPRMC,172953.164,A,4759.212,N,08150.909,W,000.0,000.0,211125,000.0,W*66
$GPGGA,172953.264,4759.212,N,08150.909,W,1,12,1.0,0.0,M,0.0,M,,*75
$GPGSA,A,3,01,02,03,04,05,06,07,08,09,10,11,12,1.0,1.0,1.0*30
$GPRMC,172953.264,A,4759.212,N,08150.909,W,000.0,000.0,211125,000.0,W*65
$GPGGA,172953.364,4759.212,N,08150.909,W,1,12,1.0,0.0,M,0.0,M,,*74
$GPGSA,A,3,01,02,03,04,05,06,07,08,09,10,11,12,1.0,1.0,1.0*30
$GPRMC,172953.364,A,4759.212,N,08150.909,W,000.0,000.0,211125,000.0,W*64
$GPGGA,172953.464,4759.212,N,08150.909,W,1,12,1.0,0.0,M,0.0,M,,*73
$GPGSA,A,3,01,02,03,04,05,06,07,08,09,10,11,12,1.0,1.0,1.0*30
$GPRMC,172953.464,A,4759.212,N,08150.909,W,000.0,000.0,211125,000.0,W*63
$GPGGA,172953.564,4759.212,N,08150.909,W,1,12,1.0,0.0,M,0.0,M,,*72
$GPGSA,A,3,01,02,03,04,05,06,07,08,09,10,11,12,1.0,1.0,1.0*30
$GPRMC,172953.564,A,4759.212,N,08150.909,W,000.0,000.0,211125,000.0,W*62
$GPGGA,172953.664,4759.212,N,08150.909,W,1,12,1.0,0.0,M,0.0,M,,*71
$GPGSA,A,3,01,02,03,04,05,06,07,08,09,10,11,12,1.0,1.0,1.0*30
$GPRMC,172953.664,A,4759.212,N,08150.909,W,000.0,000.0,211125,000.0,W*61
$GPGGA,172953.764,4759.212,N,08150.909,W,1,12,1.0,0.0,M,0.0,M,,*70
$GPGSA,A,3,01,02,03,04,05,06,07,08,09,10,11,12,1.0,1.0,1.0*30
$GPRMC,172953.764,A,4759.212,N,08150.909,W,000.0,000.0,211125,000.0,W*60
$GPGGA,172953.864,4759.212,N,08150.909,W,1,12,1.0,0.0,M,0.0,M,,*7F
$GPGSA,A,3,01,02,03,04,05,06,07,08,09,10,11,12,1.0,1.0,1.0*30
$GPRMC,172953.864,A,4759.212,N,08150.909,W,000.0,000.0,211125,000.0,W*6F
$GPGGA,172953.964,4759.212,N,08150.909,W,1,12,1.0,0.0,M,0.0,M,,*7E
$GPGSA,A,3,01,02,03,04,05,06,07,08,09,10,11,12,1.0,1.0,1.0*30
$GPRMC,172953.964,A,4759.212,N,08150.909,W,000.0,000.0,211125,000.0,W*6E
$GPGGA,172954.064,4759.212,N,08150.909,W,1,12,1.0,0.0,M,0.0,M,,*70
$GPGSA,A,3,01,02,03,04,05,06,07,08,09,10,11,12,1.0,1.0,1.0*30
$GPRMC,172954.064,A,4759.212,N,08150.909,W,000.0,000.0,211125,000.0,W*60
$GPGGA,172954.164,4759.212,N,08150.909,W,1,12,1.0,0.0,M,0.0,M,,*71
$GPGSA,A,3,01,02,03,04,05,06,07,08,09,10,11,12,1.0,1.0,1.0*30
$GPRMC,172954.164,A,4759.212,N,08150.909,W,000.0,000.0,211125,000.0,W*61
$GPGGA,172954.264,4759.212,N,08150.909,W,1,12,1.0,0.0,M,0.0,M,,*72
$GPGSA,A,3,01,02,03,04,05,06,07,08,09,10,11,12,1.0,1.0,1.0*30
$GPRMC,172954.264,A,4759.212,N,08150.909,W,000.0,000.0,211125,000.0,W*62
$GPGGA,172954.364,4759.212,N,08150.909,W,1,12,1.0,0.0,M,0.0,M,,*73
$GPGSA,A,3,01,02,03,04,05,06,07,08,09,10,11,12,1.0,1.0,1.0*30
$GPRMC,172954.364,A,4759.212,N,08150.909,W,000.0,000.0,211125,000.0,W*63
$GPGGA,172954.464,4759.212,N,08150.909,W,1,12,1.0,0.0,M,0.0,M,,*74
$GPGSA,A,3,01,02,03,04,05,06,07,08,09,10,11,12,1.0,1.0,1.0*30
$GPRMC,172954.464,A,4759.212,N,08150.909,W,000.0,000.0,211125,000.0,W*64
$GPGGA,172954.564,4759.212,N,08150.909,W,1,12,1.0,0.0,M,0.0,M,,*75
$GPGSA,A,3,01,02,03,04,05,06,07,08,09,10,11,12,1.0,1.0,1.0*30
$GPRMC,172954.564,A,4759.212,N,08150.909,W,000.0,000.0,211125,000.0,W*65
$GPGGA,172954.664,4759.212,N,08150.909,W,1,12,1.0,0.0,M,0.0,M,,*76
$GPGSA,A,3,01,02,03,04,05,06,07,08,09,10,11,12,1.0,1.0,1.0*30
$GPRMC,172954.664,A,4759.212,N,08150.909,W,000.0,000.0,211125,000.0,W*66
$GPGGA,172954.764,4759.212,N,08150.909,W,1,12,1.0,0.0,M,0.0,M,,*77
$GPGSA,A,3,01,02,03,04,05,06,07,08,09,10,11,12,1.0,1.0,1.0*30
$GPRMC,172954.764,A,4759.212,N,08150.909,W,000.0,000.0,211125,000.0,W*67
$GPGGA,172954.864,4759.212,N,08150.909,W,1,12,1.0,0.0,M,0.0,M,,*78
$GPGSA,A,3,01,02,03,04,05,06,07,08,09,10,11,12,1.0,1.0,1.0*30
$GPRMC,172954.864,A,4759.212,N,08150.909,W,000.0,000.0,211125,000.0,W*68
$GPGGA,172954.964,4759.212,N,08150.909,W,1,12,1.0,0.0,M,0.0,M,,*79
$GPGSA,A,3,01,02,03,04,05,06,07,08,09,10,11,12,1.0,1.0,1.0*30
$GPRMC,172954.964,A,4759.212,N,08150.909,W,000.0,000.0,211125,000.0,W*69
$GPGGA,172955.064,4759.212,N,08150.909,W,1,12,1.0,0.0,M,0.0,M,,*71
$GPGSA,A,3,01,02,03,04,05,06,07,08,09,10,11,12,1.0,1.0,1.0*30
$GPRMC,172955.064,A,4759.212,N,08150.909,W,000.0,000.0,211125,000.0,W*61
$GPGGA,172955.164,4759.212,N,08150.909,W,1,12,1.0,0.0,M,0.0,M,,*70
$GPGSA,A,3,01,02,03,04,05,06,07,08,09,10,11,12,1.0,1.0,1.0*30
$GPRMC,172955.164,A,4759.212,N,08150.909,W,000.0,000.0,211125,000.0,W*60
$GPGGA,172955.264,4759.212,N,08150.909,W,1,12,1.0,0.0,M,0.0,M,,*73
$GPGSA,A,3,01,02,03,04,05,06,07,08,09,10,11,12,1.0,1.0,1.0*30
$GPRMC,172955.264,A,4759.212,N,08150.909,W,000.0,000.0,211125,000.0,W*63
$GPGGA,172955.364,4759.212,N,08150.909,W,1,12,1.0,0.0,M,0.0,M,,*72
$GPGSA,A,3,01,02,03,04,05,06,07,08,09,10,11,12,1.0,1.0,1.0*30
$GPRMC,172955.364,A,4759.212,N,08150.909,W,000.0,000.0,211125,000.0,W*62
$GPGGA,172955.464,4759.212,N,08150.909,W,1,12,1.0,0.0,M,0.0,M,,*75
$GPGSA,A,3,01,02,03,04,05,06,07,08,09,10,11,12,1.0,1.0,1.0*30
$GPRMC,172955.464,A,4759.212,N,08150.909,W,000.0,000.0,211125,000.0,W*65
$GPGGA,172955.564,4759.212,N,08150.909,W,1,12,1.0,0.0,M,0.0,M,,*74
$GPGSA,A,3,01,02,03,04,05,06,07,08,09,10,11,12,1.0,1.0,1.0*30
$GPRMC,172955.564,A,4759.212,N,08150.909,W,000.0,000.0,211125,000.0,W*64
$GPGGA,172955.664,4759.212,N,08150.909,W,1,12,1.0,0.0,M,0.0,M,,*77
$GPGSA,A,3,01,02,03,04,05,06,07,08,09,10,11,12,1.0,1.0,1.0*30
$GPRMC,172955.664,A,4759.212,N,08150.909,W,000.0,000.0,211125,000.0,W*67
$GPGGA,172955.764,4759.212,N,08150.909,W,1,12,1.0,0.0,M,0.0,M,,*76
$GPGSA,A,3,01,02,03,04,05,06,07,08,09,10,11,12,1.0,1.0,1.0*30
$GPRMC,172955.764,A,4759.212,N,08150.909,W,000.0,000.0,211125,000.0,W*66
$GPGGA,172955.864,4759.212,N,08150.909,W,1,12,1.0,0.0,M,0.0,M,,*79
$GPGSA,A,3,01,02,03,04,05,06,07,08,09,10,11,12,1.0,1.0,1.0*30
$GPRMC,172955.864,A,4759.212,N,08150.909,W,000.0,000.0,211125,000.0,W*69
$GPGGA,172955.964,4759.212,N,08150.909,W,1,12,1.0,0.0,M,0.0,M,,*78
$GPGSA,A,3,01,02,03,04,05,06,07,08,09,10,11,12,1.0,1.0,1.0*30
$GPRMC,172955.964,A,4759.212,N,08150.909,W,000.0,000.0,211125,000.0,W*68
$GPGGA,172956.064,4759.212,N,08150.909,W,1,12,1.0,0.0,M,0.0,M,,*72
$GPGSA,A,3,01,02,03,04,05,06,07,08,09,10,11,12,1.0,1.0,1.0*30
$GPRMC,172956.064,A,4759.212,N,08150.909,W,000.0,000.0,211125,000.0,W*62
$GPGGA,172956.164,4759.212,N,08150.909,W,1,12,1.0,0.0,M,0.0,M,,*73
$GPGSA,A,3,01,02,03,04,05,06,07,08,09,10,11,12,1.0,1.0,1.0*30
$GPRMC,172956.164,A,4759.212,N,08150.909,W,000.0,000.0,211125,000.0,W*63
$GPGGA,172956.264,4759.212,N,08150.909,W,1,12,1.0,0.0,M,0.0,M,,*70
$GPGSA,A,3,01,02,03,04,05,06,07,08,09,10,11,12,1.0,1.0,1.0*30
$GPRMC,172956.264,A,4759.212,N,08150.909,W,000.0,000.0,211125,000.0,W*60
$GPGGA,172956.364,4759.212,N,08150.909,W,1,12,1.0,0.0,M,0.0,M,,*71
$GPGSA,A,3,01,02,03,04,05,06,07,08,09,10,11,12,1.0,1.0,1.0*30
$GPRMC,172956.364,A,4759.212,N,08150.909,W,000.0,000.0,211125,000.0,W*61
$GPGGA,172956.464,4759.212,N,08150.909,W,1,12,1.0,0.0,M,0.0,M,,*76
$GPGSA,A,3,01,02,03,04,05,06,07,08,09,10,11,12,1.0,1.0,1.0*30
$GPRMC,172956.464,A,4759.212,N,08150.909,W,000.0,000.0,211125,000.0,W*66
$GPGGA,172956.564,4759.212,N,08150.909,W,1,12,1.0,0.0,M,0.0,M,,*77
$GPGSA,A,3,01,02,03,04,05,06,07,08,09,10,11,12,1.0,1.0,1.0*30
$GPRMC,172956.564,A,4759.212,N,08150.909,W,000.0,000.0,211125,000.0,W*67
$GPGGA,172956.664,4759.212,N,08150.909,W,1,12,1.0,0.0,M,0.0,M,,*74
$GPGSA,A,3,01,02,03,04,05,06,07,08,09,10,11,12,1.0,1.0,1.0*30
$GPRMC,172956.664,A,4759.212,N,08150.909,W,000.0,000.0,211125,000.0,W*64
$GPGGA,172956.764,4759.212,N,08150.909,W,1,12,1.0,0.0,M,0.0,M,,*75
$GPGSA,A,3,01,02,03,04,05,06,07,08,09,10,11,12,1.0,1.0,1.0*30
$GPRMC,172956.764,A,4759.212,N,08150.909,W,000.0,000.0,211125,000.0,W*65
$GPGGA,172956.864,4759.212,N,08150.909,W,1,12,1.0,0.0,M,0.0,M,,*7A
$GPGSA,A,3,01,02,03,04,05,06,07,08,09,10,11,12,1.0,1.0,1.0*30
$GPRMC,172956.864,A,4759.212,N,08150.909,W,000.0,000.0,211125,000.0,W*6A
$GPGGA,172956.964,4759.212,N,08150.909,W,1,12,1.0,0.0,M,0.0,M,,*7B
$GPGSA,A,3,01,02,03,04,05,06,07,08,09,10,11,12,1.0,1.0,1.0*30
$GPRMC,172956.964,A,4759.212,N,08150.909,W,000.0,000.0,211125,000.0,W*6B
$GPGGA,172957.064,4759.212,N,08150.909,W,1,12,1.0,0.0,M,0.0,M,,*73
$GPGSA,A,3,01,02,03,04,05,06,07,08,09,10,11,12,1.0,1.0,1.0*30
$GPRMC,172957.064,A,4759.212,N,08150.909,W,000.0,000.0,211125,000.0,W*63
$GPGGA,172957.164,4759.212,N,08150.909,W,1,12,1.0,0.0,M,0.0,M,,*72
$GPGSA,A,3,01,02,03,04,05,06,07,08,09,10,11,12,1.0,1.0,1.0*30
$GPRMC,172957.164,A,4759.212,N,08150.909,W,000.0,000.0,211125,000.0,W*62
$GPGGA,172957.264,4759.212,N,08150.909,W,1,12,1.0,0.0,M,0.0,M,,*71
$GPGSA,A,3,01,02,03,04,05,06,07,08,09,10,11,12,1.0,1.0,1.0*30
$GPRMC,172957.264,A,4759.212,N,08150.909,W,000.0,000.0,211125,000.0,W*61
$GPGGA,172957.364,4759.212,N,08150.909,W,1,12,1.0,0.0,M,0.0,M,,*70
$GPGSA,A,3,01,02,03,04,05,06,07,08,09,10,11,12,1.0,1.0,1.0*30
$GPRMC,172957.364,A,4759.212,N,08150.909,W,000.0,000.0,211125,000.0,W*60
$GPGGA,172957.464,4759.212,N,08150.909,W,1,12,1.0,0.0,M,0.0,M,,*77
$GPGSA,A,3,01,02,03,04,05,06,07,08,09,10,11,12,1.0,1.0,1.0*30
$GPRMC,172957.464,A,4759.212,N,08150.909,W,000.0,000.0,211125,000.0,W*67
$GPGGA,172957.564,4759.212,N,08150.909,W,1,12,1.0,0.0,M,0.0,M,,*76
$GPGSA,A,3,01,02,03,04,05,06,07,08,09,10,11,12,1.0,1.0,1.0*30
$GPRMC,172957.564,A,4759.212,N,08150.909,W,000.0,000.0,211125,000.0,W*66
$GPGGA,172957.664,4759.212,N,08150.909,W,1,12,1.0,0.0,M,0.0,M,,*75
$GPGSA,A,3,01,02,03,04,05,06,07,08,09,10,11,12,1.0,1.0,1.0*30
$GPRMC,172957.664,A,4759.212,N,08150.909,W,000.0,000.0,211125,000.0,W*65
$GPGGA,172957.764,4759.212,N,08150.909,W,1,12,1.0,0.0,M,0.0,M,,*74
$GPGSA,A,3,01,02,03,04,05,06,07,08,09,10,11,12,1.0,1.0,1.0*30
$GPRMC,172957.764,A,4759.212,N,08150.909,W,000.0,000.0,211125,000.0,W*64
$GPGGA,172957.864,4759.212,N,08150.909,W,1,12,1.0,0.0,M,0.0,M,,*7B
$GPGSA,A,3,01,02,03,04,05,06,07,08,09,10,11,12,1.0,1.0,1.0*30
$GPRMC,172957.864,A,4759.212,N,08150.909,W,000.0,000.0,211125,000.0,W*6B
$GPGGA,172957.964,4759.212,N,08150.909,W,1,12,1.0,0.0,M,0.0,M,,*7A
$GPGSA,A,3,01,02,03,04,05,06,07,08,09,10,11,12,1.0,1.0,1.0*30
$GPRMC,172957.964,A,4759.212,N,08150.909,W,000.0,000.0,211125,000.0,W*6A
$GPGGA,172958.064,4759.212,N,08150.909,W,1,12,1.0,0.0,M,0.0,M,,*7C
$GPGSA,A,3,01,02,03,04,05,06,07,08,09,10,11,12,1.0,1.0,1.0*30
$GPRMC,172958.064,A,4759.212,N,08150.909,W,000.0,000.0,211125,000.0,W*6C
$GPGGA,172958.164,4759.212,N,08150.909,W,1,12,1.0,0.0,M,0.0,M,,*7D
$GPGSA,A,3,01,02,03,04,05,06,07,08,09,10,11,12,1.0,1.0,1.0*30
$GPRMC,172958.164,A,4759.212,N,08150.909,W,000.0,000.0,211125,000.0,W*6D
$GPGGA,172958.264,4759.212,N,08150.909,W,1,12,1.0,0.0,M,0.0,M,,*7E
$GPGSA,A,3,01,02,03,04,05,06,07,08,09,10,11,12,1.0,1.0,1.0*30
$GPRMC,172958.264,A,4759.212,N,08150.909,W,000.0,000.0,211125,000.0,W*6E
$GPGGA,172958.364,4759.212,N,08150.909,W,1,12,1.0,0.0,M,0.0,M,,*7F
$GPGSA,A,3,01,02,03,04,05,06,07,08,09,10,11,12,1.0,1.0,1.0*30
$GPRMC,172958.364,A,4759.212,N,08150.909,W,000.0,000.0,211125,000.0,W*6F
$GPGGA,172958.464,4759.212,N,08150.909,W,1,12,1.0,0.0,M,0.0,M,,*78
$GPGSA,A,3,01,02,03,04,05,06,07,08,09,10,11,12,1.0,1.0,1.0*30
$GPRMC,172958.464,A,4759.212,N,08150.909,W,000.0,000.0,211125,000.0,W*68
$GPGGA,172958.564,4759.212,N,08150.909,W,1,12,1.0,0.0,M,0.0,M,,*79
$GPGSA,A,3,01,02,03,04,05,06,07,08,09,10,11,12,1.0,1.0,1.0*30
$GPRMC,172958.564,A,4759.212,N,08150.909,W,000.0,000.0,211125,000.0,W*69
$GPGGA,172958.664,4759.212,N,08150.909,W,1,12,1.0,0.0,M,0.0,M,,*7A
$GPGSA,A,3,01,02,03,04,05,06,07,08,09,10,11,12,1.0,1.0,1.0*30
$GPRMC,172958.664,A,4759.212,N,08150.909,W,000.0,000.0,211125,000.0,W*6A
$GPGGA,172958.764,4759.212,N,08150.909,W,1,12,1.0,0.0,M,0.0,M,,*7B
$GPGSA,A,3,01,02,03,04,05,06,07,08,09,10,11,12,1.0,1.0,1.0*30
$GPRMC,172958.764,A,4759.212,N,08150.909,W,000.0,000.0,211125,000.0,W*6B
$GPGGA,172958.864,4759.212,N,08150.909,W,1,12,1.0,0.0,M,0.0,M,,*74
$GPGSA,A,3,01,02,03,04,05,06,07,08,09,10,11,12,1.0,1.0,1.0*30
$GPRMC,172958.864,A,4759.212,N,08150.909,W,000.0,000.0,211125,000.0,W*64
$GPGGA,172958.964,4759.212,N,08150.909,W,1,12,1.0,0.0,M,0.0,M,,*75
$GPGSA,A,3,01,02,03,04,05,06,07,08,09,10,11,12,1.0,1.0,1.0*30
$GPRMC,172958.964,A,4759.212,N,08150.909,W,000.0,000.0,211125,000.0,W*65
$GPGGA,172959.064,4759.212,N,08150.909,W,1,12,1.0,0.0,M,0.0,M,,*7D
$GPGSA,A,3,01,02,03,04,05,06,07,08,09,10,11,12,1.0,1.0,1.0*30
$GPRMC,172959.064,A,4759.212,N,08150.909,W,000.0,000.0,211125,000.0,W*6D
$GPGGA,172959.164,4759.212,N,08150.909,W,1,12,1.0,0.0,M,0.0,M,,*7C
$GPGSA,A,3,01,02,03,04,05,06,07,08,09,10,11,12,1.0,1.0,1.0*30
$GPRMC,172959.164,A,4759.212,N,08150.909,W,000.0,000.0,211125,000.0,W*6C
$GPGGA,172959.264,4759.212,N,08150.909,W,1,12,1.0,0.0,M,0.0,M,,*7F
$GPGSA,A,3,01,02,03,04,05,06,07,08,09,10,11,12,1.0,1.0,1.0*30
$GPRMC,172959.264,A,4759.212,N,08150.909,W,000.0,000.0,211125,000.0,W*6F
$GPGGA,172959.364,4759.212,N,08150.909,W,1,12,1.0,0.0,M,0.0,M,,*7E
$GPGSA,A,3,01,02,03,04,05,06,07,08,09,10,11,12,1.0,1.0,1.0*30
$GPRMC,172959.364,A,4759.212,N,08150.909,W,000.0,000.0,211125,000.0,W*6E
$GPGGA,172959.464,4759.212,N,08150.909,W,1,12,1.0,0.0,M,0.0,M,,*79
$GPGSA,A,3,01,02,03,04,05,06,07,08,09,10,11,12,1.0,1.0,1.0*30
$GPRMC,172959.464,A,4759.212,N,08150.909,W,000.0,000.0,211125,000.0,W*69
$GPGGA,172959.564,4759.212,N,08150.909,W,1,12,1.0,0.0,M,0.0,M,,*78
$GPGSA,A,3,01,02,03,04,05,06,07,08,09,10,11,12,1.0,1.0,1.0*30
$GPRMC,172959.564,A,4759.212,N,08150.909,W,000.0,000.0,211125,000.0,W*68
$GPGGA,172959.664,4759.212,N,08150.909,W,1,12,1.0,0.0,M,0.0,M,,*7B
$GPGSA,A,3,01,02,03,04,05,06,07,08,09,10,11,12,1.0,1.0,1.0*30
$GPRMC,172959.664,A,4759.212,N,08150.909,W,000.0,000.0,211125,000.0,W*6B
$GPGGA,172959.764,4759.212,N,08150.909,W,1,12,1.0,0.0,M,0.0,M,,*7A
$GPGSA,A,3,01,02,03,04,05,06,07,08,09,10,11,12,1.0,1.0,1.0*30
$GPRMC,172959.764,A,4759.212,N,08150.909,W,000.0,000.0,211125,000.0,W*6A
$GPGGA,172959.864,4759.212,N,08150.909,W,1,12,1.0,0.0,M,0.0,M,,*75
$GPGSA,A,3,01,02,03,04,05,06,07,08,09,10,11,12,1.0,1.0,1.0*30
$GPRMC,172959.864,A,4759.212,N,08150.909,W,000.0,000.0,211125,000.0,W*65
$GPGGA,172959.964,4759.212,N,08150.909,W,1,12,1.0,0.0,M,0.0,M,,*74
$GPGSA,A,3,01,02,03,04,05,06,07,08,09,10,11,12,1.0,1.0,1.0*30
$GPRMC,172959.964,A,4759.212,N,08150.909,W,000.0,000.0,211125,000.0,W*64
$GPGGA,173000.064,4759.212,N,08150.909,W,1,12,1.0,0.0,M,0.0,M,,*79
$GPGSA,A,3,01,02,03,04,05,06,07,08,09,10,11,12,1.0,1.0,1.0*30
$GPRMC,173000.064,A,4759.212,N,08150.909,W,000.0,000.0,211125,000.0,W*69
$GPGGA,173000.164,4759.212,N,08150.909,W,1,12,1.0,0.0,M,0.0,M,,*78
$GPGSA,A,3,01,02,03,04,05,06,07,08,09,10,11,12,1.0,1.0,1.0*30
$GPRMC,173000.164,A,4759.212,N,08150.909,W,000.0,000.0,211125,000.0,W*68
$GPGGA,173000.264,4759.212,N,08150.909,W,1,12,1.0,0.0,M,0.0,M,,*7B
$GPGSA,A,3,01,02,03,04,05,06,07,08,09,10,11,12,1.0,1.0,1.0*30
$GPRMC,173000.264,A,4759.212,N,08150.909,W,000.0,000.0,211125,000.0,W*6B
$GPGGA,173000.364,4759.212,N,08150.909,W,1,12,1.0,0.0,M,0.0,M,,*7A
$GPGSA,A,3,01,02,03,04,05,06,07,08,09,10,11,12,1.0,1.0,1.0*30
$GPRMC,173000.364,A,4759.212,N,08150.909,W,000.0,000.0,211125,000.0,W*6A
$GPGGA,173000.464,4759.212,N,08150.909,W,1,12,1.0,0.0,M,0.0,M,,*7D
$GPGSA,A,3,01,02,03,04,05,06,07,08,09,10,11,12,1.0,1.0,1.0*30
$GPRMC,173000.464,A,4759.212,N,08150.909,W,000.0,000.0,211125,000.0,W*6D
$GPGGA,173000.564,4759.212,N,08150.909,W,1,12,1.0,0.0,M,0.0,M,,*7C
$GPGSA,A,3,01,02,03,04,05,06,07,08,09,10,11,12,1.0,1.0,1.0*30
$GPRMC,173000.564,A,4759.212,N,08150.909,W,000.0,000.0,211125,000.0,W*6C
$GPGGA,173000.664,4759.212,N,08150.909,W,1,12,1.0,0.0,M,0.0,M,,*7F
$GPGSA,A,3,01,02,03,04,05,06,07,08,09,10,11,12,1.0,1.0,1.0*30
$GPRMC,173000.664,A,4759.212,N,08150.909,W,000.0,000.0,211125,000.0,W*6F
$GPGGA,173000.764,4759.212,N,08150.909,W,1,12,1.0,0.0,M,0.0,M,,*7E
$GPGSA,A,3,01,02,03,04,05,06,07,08,09,10,11,12,1.0,1.0,1.0*30
$GPRMC,173000.764,A,4759.212,N,08150.909,W,000.0,000.0,211125,000.0,W*6E
$GPGGA,173000.864,4759.212,N,08150.909,W,1,12,1.0,0.0,M,0.0,M,,*71
$GPGSA,A,3,01,02,03,04,05,06,07,08,09,10,11,12,1.0,1.0,1.0*30
$GPRMC,173000.864,A,4759.212,N,08150.909,W,000.0,000.0,211125,000.0,W*61
$GPGGA,173000.964,4759.212,N,08150.909,W,1,12,1.0,0.0,M,0.0,M,,*70
$GPGSA,A,3,01,02,03,04,05,06,07,08,09,10,11,12,1.0,1.0,1.0*30
$GPRMC,173000.964,A,4759.212,N,08150.909,W,000.0,000.0,211125,000.0,W*60
$GPGGA,173001.064,4759.212,N,08150.909,W,1,12,1.0,0.0,M,0.0,M,,*78
$GPGSA,A,3,01,02,03,04,05,06,07,08,09,10,11,12,1.0,1.0,1.0*30
$GPRMC,173001.064,A,4759.212,N,08150.909,W,000.0,000.0,211125,000.0,W*68
$GPGGA,173001.164,4759.212,N,08150.909,W,1,12,1.0,0.0,M,0.0,M,,*79
$GPGSA,A,3,01,02,03,04,05,06,07,08,09,10,11,12,1.0,1.0,1.0*30
$GPRMC,173001.164,A,4759.212,N,08150.909,W,000.0,000.0,211125,000.0,W*69
$GPGGA,173001.264,4759.212,N,08150.909,W,1,12,1.0,0.0,M,0.0,M,,*7A
$GPGSA,A,3,01,02,03,04,05,06,07,08,09,10,11,12,1.0,1.0,1.0*30
$GPRMC,173001.264,A,4759.212,N,08150.909,W,000.0,000.0,211125,000.0,W*6A
$GPGGA,173001.364,4759.212,N,08150.909,W,1,12,1.0,0.0,M,0.0,M,,*7B
$GPGSA,A,3,01,02,03,04,05,06,07,08,09,10,11,12,1.0,1.0,1.0*30
$GPRMC,173001.364,A,4759.212,N,08150.909,W,000.0,000.0,211125,000.0,W*6B
$GPGGA,173001.464,4759.212,N,08150.909,W,1,12,1.0,0.0,M,0.0,M,,*7C
$GPGSA,A,3,01,02,03,04,05,06,07,08,09,10,11,12,1.0,1.0,1.0*30
$GPRMC,173001.464,A,4759.212,N,08150.909,W,000.0,000.0,211125,000.0,W*6C
$GPGGA,173001.564,4759.212,N,08150.909,W,1,12,1.0,0.0,M,0.0,M,,*7D
$GPGSA,A,3,01,02,03,04,05,06,07,08,09,10,11,12,1.0,1.0,1.0*30
$GPRMC,173001.564,A,4759.212,N,08150.909,W,000.0,000.0,211125,000.0,W*6D
$GPGGA,173001.664,4759.212,N,08150.909,W,1,12,1.0,0.0,M,0.0,M,,*7E
$GPGSA,A,3,01,02,03,04,05,06,07,08,09,10,11,12,1.0,1.0,1.0*30
$GPRMC,173001.664,A,4759.212,N,08150.909,W,000.0,000.0,211125,000.0,W*6E
$GPGGA,173001.764,4759.212,N,08150.909,W,1,12,1.0,0.0,M,0.0,M,,*7F
$GPGSA,A,3,01,02,03,04,05,06,07,08,09,10,11,12,1.0,1.0,1.0*30
$GPRMC,173001.764,A,4759.212,N,08150.909,W,000.0,000.0,211125,000.0,W*6F
$GPGGA,173001.864,4759.212,N,08150.909,W,1,12,1.0,0.0,M,0.0,M,,*70
$GPGSA,A,3,01,02,03,04,05,06,07,08,09,10,11,12,1.0,1.0,1.0*30
$GPRMC,173001.864,A,4759.212,N,08150.909,W,000.0,000.0,211125,000.0,W*60
$GPGGA,173001.964,4759.212,N,08150.909,W,1,12,1.0,0.0,M,0.0,M,,*71
$GPGSA,A,3,01,02,03,04,05,06,07,08,09,10,11,12,1.0,1.0,1.0*30
$GPRMC,173001.964,A,4759.212,N,08150.909,W,000.0,000.0,211125,000.0,W*61
$GPGGA,173002.064,4759.212,N,08150.909,W,1,12,1.0,0.0,M,0.0,M,,*7B
$GPGSA,A,3,01,02,03,04,05,06,07,08,09,10,11,12,1.0,1.0,1.0*30
$GPRMC,173002.064,A,4759.212,N,08150.909,W,000.0,000.0,211125,000.0,W*6B
$GPGGA,173002.164,4759.212,N,08150.909,W,1,12,1.0,0.0,M,0.0,M,,*7A
$GPGSA,A,3,01,02,03,04,05,06,07,08,09,10,11,12,1.0,1.0,1.0*30
$GPRMC,173002.164,A,4759.212,N,08150.909,W,000.0,000.0,211125,000.0,W*6A
$GPGGA,173002.264,4759.212,N,08150.909,W,1,12,1.0,0.0,M,0.0,M,,*79
$GPGSA,A,3,01,02,03,04,05,06,07,08,09,10,11,12,1.0,1.0,1.0*30
$GPRMC,173002.264,A,4759.212,N,08150.909,W,000.0,000.0,211125,000.0,W*69
$GPGGA,173002.364,4759.212,N,08150.909,W,1,12,1.0,0.0,M,0.0,M,,*78
$GPGSA,A,3,01,02,03,04,05,06,07,08,09,10,11,12,1.0,1.0,1.0*30
$GPRMC,173002.364,A,4759.212,N,08150.909,W,000.0,000.0,211125,000.0,W*68
$GPGGA,173002.464,4759.212,N,08150.909,W,1,12,1.0,0.0,M,0.0,M,,*7F
$GPGSA,A,3,01,02,03,04,05,06,07,08,09,10,11,12,1.0,1.0,1.0*30
$GPRMC,173002.464,A,4759.212,N,08150.909,W,000.0,000.0,211125,000.0,W*6F
$GPGGA,173002.564,4759.212,N,08150.909,W,1,12,1.0,0.0,M,0.0,M,,*7E
$GPGSA,A,3,01,02,03,04,05,06,07,08,09,10,11,12,1.0,1.0,1.0*30
$GPRMC,173002.564,A,4759.212,N,08150.909,W,000.0,000.0,211125,000.0,W*6E
$GPGGA,173002.664,4759.212,N,08150.909,W,1,12,1.0,0.0,M,0.0,M,,*7D
$GPGSA,A,3,01,02,03,04,05,06,07,08,09,10,11,12,1.0,1.0,1.0*30
$GPRMC,173002.664,A,4759.212,N,08150.909,W,000.0,000.0,211125,000.0,W*6D
$GPGGA,173002.764,4759.212,N,08150.909,W,1,12,1.0,0.0,M,0.0,M,,*7C
$GPGSA,A,3,01,02,03,04,05,06,07,08,09,10,11,12,1.0,1.0,1.0*30
$GPRMC,173002.764,A,4759.212,N,08150.909,W,000.0,000.0,211125,000.0,W*6C
$GPGGA,173002.864,4759.212,N,08150.909,W,1,12,1.0,0.0,M,0.0,M,,*73
$GPGSA,A,3,01,02,03,04,05,06,07,08,09,10,11,12,1.0,1.0,1.0*30
$GPRMC,173002.864,A,4759.212,N,08150.909,W,000.0,000.0,211125,000.0,W*63
$GPGGA,173002.964,4759.212,N,08150.909,W,1,12,1.0,0.0,M,0.0,M,,*72
$GPGSA,A,3,01,02,03,04,05,06,07,08,09,10,11,12,1.0,1.0,1.0*30
$GPRMC,173002.964,A,4759.212,N,08150.909,W,000.0,000.0,211125,000.0,W*62
$GPGGA,173003.064,4759.212,N,08150.909,W,1,12,1.0,0.0,M,0.0,M,,*7A
$GPGSA,A,3,01,02,03,04,05,06,07,08,09,10,11,12,1.0,1.0,1.0*30
$GPRMC,173003.064,A,4759.212,N,08150.909,W,000.0,000.0,211125,000.0,W*6A
$GPGGA,173003.164,4759.212,N,08150.909,W,1,12,1.0,0.0,M,0.0,M,,*7B
$GPGSA,A,3,01,02,03,04,05,06,07,08,09,10,11,12,1.0,1.0,1.0*30
$GPRMC,173003.164,A,4759.212,N,08150.909,W,000.0,000.0,211125,000.0,W*6B
$GPGGA,173003.264,4759.212,N,08150.909,W,1,12,1.0,0.0,M,0.0,M,,*78
$GPGSA,A,3,01,02,03,04,05,06,07,08,09,10,11,12,1.0,1.0,1.0*30
$GPRMC,173003.264,A,4759.212,N,08150.909,W,000.0,000.0,211125,000.0,W*68
$GPGGA,173003.364,4759.212,N,08150.909,W,1,12,1.0,0.0,M,0.0,M,,*79
$GPGSA,A,3,01,02,03,04,05,06,07,08,09,10,11,12,1.0,1.0,1.0*30
$GPRMC,173003.364,A,4759.212,N,08150.909,W,000.0,000.0,211125,000.0,W*69
$GPGGA,173003.464,4759.212,N,08150.909,W,1,12,1.0,0.0,M,0.0,M,,*7E
$GPGSA,A,3,01,02,03,04,05,06,07,08,09,10,11,12,1.0,1.0,1.0*30
$GPRMC,173003.464,A,4759.212,N,08150.909,W,000.0,000.0,211125,000.0,W*6E
$GPGGA,173003.564,4759.212,N,08150.909,W,1,12,1.0,0.0,M,0.0,M,,*7F
$GPGSA,A,3,01,02,03,04,05,06,07,08,09,10,11,12,1.0,1.0,1.0*30
$GPRMC,173003.564,A,4759.212,N,08150.909,W,000.0,000.0,211125,000.0,W*6F
$GPGGA,173003.664,4759.212,N,08150.909,W,1,12,1.0,0.0,M,0.0,M,,*7C
$GPGSA,A,3,01,02,03,04,05,06,07,08,09,10,11,12,1.0,1.0,1.0*30
$GPRMC,173003.664,A,4759.212,N,08150.909,W,000.0,000.0,211125,000.0,W*6C
$GPGGA,173003.764,4759.212,N,08150.909,W,1,12,1.0,0.0,M,0.0,M,,*7D
$GPGSA,A,3,01,02,03,04,05,06,07,08,09,10,11,12,1.0,1.0,1.0*30
$GPRMC,173003.764,A,4759.212,N,08150.909,W,000.0,000.0,211125,000.0,W*6D
$GPGGA,173003.864,4759.212,N,08150.909,W,1,12,1.0,0.0,M,0.0,M,,*72
$GPGSA,A,3,01,02,03,04,05,06,07,08,09,10,11,12,1.0,1.0,1.0*30
$GPRMC,173003.864,A,4759.212,N,08150.909,W,000.0,000.0,211125,000.0,W*62
$GPGGA,173003.964,4759.212,N,08150.909,W,1,12,1.0,0.0,M,0.0,M,,*73
$GPGSA,A,3,01,02,03,04,05,06,07,08,09,10,11,12,1.0,1.0,1.0*30
$GPRMC,173003.964,A,4759.212,N,08150.909,W,000.0,000.0,211125,000.0,W*63
$GPGGA,173004.064,4759.212,N,08150.909,W,1,12,1.0,0.0,M,0.0,M,,*7D
$GPGSA,A,3,01,02,03,04,05,06,07,08,09,10,11,12,1.0,1.0,1.0*30
$GPRMC,173004.064,A,4759.212,N,08150.909,W,000.0,000.0,211125,000.0,W*6D
$GPGGA,173004.164,4759.212,N,08150.909,W,1,12,1.0,0.0,M,0.0,M,,*7C
$GPGSA,A,3,01,02,03,04,05,06,07,08,09,10,11,12,1.0,1.0,1.0*30
$GPRMC,173004.164,A,4759.212,N,08150.909,W,000.0,000.0,211125,000.0,W*6C
$GPGGA,173004.264,4759.212,N,08150.909,W,1,12,1.0,0.0,M,0.0,M,,*7F
$GPGSA,A,3,01,02,03,04,05,06,07,08,09,10,11,12,1.0,1.0,1.0*30
$GPRMC,173004.264,A,4759.212,N,08150.909,W,000.0,000.0,211125,000.0,W*6F
$GPGGA,173004.364,4759.212,N,08150.909,W,1,12,1.0,0.0,M,0.0,M,,*7E
$GPGSA,A,3,01,02,03,04,05,06,07,08,09,10,11,12,1.0,1.0,1.0*30
$GPRMC,173004.364,A,4759.212,N,08150.909,W,000.0,000.0,211125,000.0,W*6E
$GPGGA,173004.464,4759.212,N,08150.909,W,1,12,1.0,0.0,M,0.0,M,,*79
$GPGSA,A,3,01,02,03,04,05,06,07,08,09,10,11,12,1.0,1.0,1.0*30
$GPRMC,173004.464,A,4759.212,N,08150.909,W,000.0,000.0,211125,000.0,W*69
$GPGGA,173004.564,4759.212,N,08150.909,W,1,12,1.0,0.0,M,0.0,M,,*78
$GPGSA,A,3,01,02,03,04,05,06,07,08,09,10,11,12,1.0,1.0,1.0*30
$GPRMC,173004.564,A,4759.212,N,08150.909,W,000.0,000.0,211125,000.0,W*68
$GPGGA,173004.664,4759.212,N,08150.909,W,1,12,1.0,0.0,M,0.0,M,,*7B
$GPGSA,A,3,01,02,03,04,05,06,07,08,09,10,11,12,1.0,1.0,1.0*30
$GPRMC,173004.664,A,4759.212,N,08150.909,W,000.0,000.0,211125,000.0,W*6B
$GPGGA,173004.764,4759.212,N,08150.909,W,1,12,1.0,0.0,M,0.0,M,,*7A
$GPGSA,A,3,01,02,03,04,05,06,07,08,09,10,11,12,1.0,1.0,1.0*30
$GPRMC,173004.764,A,4759.212,N,08150.909,W,000.0,000.0,211125,000.0,W*6A
$GPGGA,173004.864,4759.212,N,08150.909,W,1,12,1.0,0.0,M,0.0,M,,*75
$GPGSA,A,3,01,02,03,04,05,06,07,08,09,10,11,12,1.0,1.0,1.0*30
$GPRMC,173004.864,A,4759.212,N,08150.909,W,000.0,000.0,211125,000.0,W*65
$GPGGA,173004.964,4759.212,N,08150.909,W,1,12,1.0,0.0,M,0.0,M,,*74
$GPGSA,A,3,01,02,03,04,05,06,07,08,09,10,11,12,1.0,1.0,1.0*30
$GPRMC,173004.964,A,4759.212,N,08150.909,W,000.0,000.0,211125,000.0,W*64
$GPGGA,173005.064,4759.212,N,08150.909,W,1,12,1.0,0.0,M,0.0,M,,*7C
$GPGSA,A,3,01,02,03,04,05,06,07,08,09,10,11,12,1.0,1.0,1.0*30
$GPRMC,173005.064,A,4759.212,N,08150.909,W,000.0,000.0,211125,000.0,W*6C
$GPGGA,173005.164,4759.212,N,08150.909,W,1,12,1.0,0.0,M,0.0,M,,*7D
$GPGSA,A,3,01,02,03,04,05,06,07,08,09,10,11,12,1.0,1.0,1.0*30
$GPRMC,173005.164,A,4759.212,N,08150.909,W,000.0,000.0,211125,000.0,W*6D
$GPGGA,173005.264,4759.212,N,08150.909,W,1,12,1.0,0.0,M,0.0,M,,*7E
$GPGSA,A,3,01,02,03,04,05,06,07,08,09,10,11,12,1.0,1.0,1.0*30
$GPRMC,173005.264,A,4759.212,N,08150.909,W,000.0,000.0,211125,000.0,W*6E
$GPGGA,173005.364,4759.212,N,08150.909,W,1,12,1.0,0.0,M,0.0,M,,*7F
$GPGSA,A,3,01,02,03,04,05,06,07,08,09,10,11,12,1.0,1.0,1.0*30
$GPRMC,173005.364,A,4759.212,N,08150.909,W,000.0,000.0,211125,000.0,W*6F
$GPGGA,173005.464,4759.212,N,08150.909,W,1,12,1.0,0.0,M,0.0,M,,*78
$GPGSA,A,3,01,02,03,04,05,06,07,08,09,10,11,12,1.0,1.0,1.0*30
$GPRMC,173005.464,A,4759.212,N,08150.909,W,000.0,000.0,211125,000.0,W*68
$GPGGA,173005.564,4759.212,N,08150.909,W,1,12,1.0,0.0,M,0.0,M,,*79
$GPGSA,A,3,01,02,03,04,05,06,07,08,09,10,11,12,1.0,1.0,1.0*30
$GPRMC,173005.564,A,4759.212,N,08150.909,W,000.0,000.0,211125,000.0,W*69
$GPGGA,173005.664,4759.212,N,08150.909,W,1,12,1.0,0.0,M,0.0,M,,*7A
$GPGSA,A,3,01,02,03,04,05,06,07,08,09,10,11,12,1.0,1.0,1.0*30
$GPRMC,173005.664,A,4759.212,N,08150.909,W,000.0,000.0,211125,000.0,W*6A
$GPGGA,173005.764,4759.212,N,08150.909,W,1,12,1.0,0.0,M,0.0,M,,*7B
$GPGSA,A,3,01,02,03,04,05,06,07,08,09,10,11,12,1.0,1.0,1.0*30
$GPRMC,173005.764,A,4759.212,N,08150.909,W,000.0,000.0,211125,000.0,W*6B
$GPGGA,173005.864,4759.212,N,08150.909,W,1,12,1.0,0.0,M,0.0,M,,*74
$GPGSA,A,3,01,02,03,04,05,06,07,08,09,10,11,12,1.0,1.0,1.0*30
$GPRMC,173005.864,A,4759.212,N,08150.909,W,000.0,000.0,211125,000.0,W*64
$GPGGA,173005.964,4759.212,N,08150.909,W,1,12,1.0,0.0,M,0.0,M,,*75
$GPGSA,A,3,01,02,03,04,05,06,07,08,09,10,11,12,1.0,1.0,1.0*30
$GPRMC,173005.964,A,4759.212,N,08150.909,W,000.0,000.0,211125,000.0,W*65
$GPGGA,173006.064,4759.212,N,08150.909,W,1,12,1.0,0.0,M,0.0,M,,*7F
$GPGSA,A,3,01,02,03,04,05,06,07,08,09,10,11,12,1.0,1.0,1.0*30
$GPRMC,173006.064,A,4759.212,N,08150.909,W,000.0,000.0,211125,000.0,W*6F
$GPGGA,173006.164,4759.212,N,08150.909,W,1,12,1.0,0.0,M,0.0,M,,*7E
$GPGSA,A,3,01,02,03,04,05,06,07,08,09,10,11,12,1.0,1.0,1.0*30
$GPRMC,173006.164,A,4759.212,N,08150.909,W,000.0,000.0,211125,000.0,W*6E
$GPGGA,173006.264,4759.212,N,08150.909,W,1,12,1.0,0.0,M,0.0,M,,*7D
$GPGSA,A,3,01,02,03,04,05,06,07,08,09,10,11,12,1.0,1.0,1.0*30
$GPRMC,173006.264,A,4759.212,N,08150.909,W,000.0,000.0,211125,000.0,W*6D
$GPGGA,173006.364,4759.212,N,08150.909,W,1,12,1.0,0.0,M,0.0,M,,*7C
$GPGSA,A,3,01,02,03,04,05,06,07,08,09,10,11,12,1.0,1.0,1.0*30
$GPRMC,173006.364,A,4759.212,N,08150.909,W,000.0,000.0,211125,000.0,W*6C
$GPGGA,173006.464,4759.212,N,08150.909,W,1,12,1.0,0.0,M,0.0,M,,*7B
$GPGSA,A,3,01,02,03,04,05,06,07,08,09,10,11,12,1.0,1.0,1.0*30
$GPRMC,173006.464,A,4759.212,N,08150.909,W,000.0,000.0,211125,000.0,W*6B
$GPGGA,173006.564,4759.212,N,08150.909,W,1,12,1.0,0.0,M,0.0,M,,*7A
$GPGSA,A,3,01,02,03,04,05,06,07,08,09,10,11,12,1.0,1.0,1.0*30
$GPRMC,173006.564,A,4759.212,N,08150.909,W,000.0,000.0,211125,000.0,W*6A
$GPGGA,173006.664,4759.212,N,08150.909,W,1,12,1.0,0.0,M,0.0,M,,*79
$GPGSA,A,3,01,02,03,04,05,06,07,08,09,10,11,12,1.0,1.0,1.0*30
$GPRMC,173006.664,A,4759.212,N,08150.909,W,000.0,000.0,211125,000.0,W*69
$GPGGA,173006.764,4759.212,N,08150.909,W,1,12,1.0,0.0,M,0.0,M,,*78
$GPGSA,A,3,01,02,03,04,05,06,07,08,09,10,11,12,1.0,1.0,1.0*30
$GPRMC,173006.764,A,4759.212,N,08150.909,W,000.0,000.0,211125,000.0,W*68
$GPGGA,173006.864,4759.212,N,08150.909,W,1,12,1.0,0.0,M,0.0,M,,*77
$GPGSA,A,3,01,02,03,04,05,06,07,08,09,10,11,12,1.0,1.0,1.0*30
$GPRMC,173006.864,A,4759.212,N,08150.909,W,000.0,000.0,211125,000.0,W*67
$GPGGA,173006.964,4759.212,N,08150.909,W,1,12,1.0,0.0,M,0.0,M,,*76
$GPGSA,A,3,01,02,03,04,05,06,07,08,09,10,11,12,1.0,1.0,1.0*30
$GPRMC,173006.964,A,4759.212,N,08150.909,W,000.0,000.0,211125,000.0,W*66
$GPGGA,173007.064,4759.212,N,08150.909,W,1,12,1.0,0.0,M,0.0,M,,*7E
$GPGSA,A,3,01,02,03,04,05,06,07,08,09,10,11,12,1.0,1.0,1.0*30
$GPRMC,173007.064,A,4759.212,N,08150.909,W,000.0,000.0,211125,000.0,W*6E
$GPGGA,173007.164,4759.212,N,08150.909,W,1,12,1.0,0.0,M,0.0,M,,*7F
$GPGSA,A,3,01,02,03,04,05,06,07,08,09,10,11,12,1.0,1.0,1.0*30
$GPRMC,173007.164,A,4759.212,N,08150.909,W,000.0,000.0,211125,000.0,W*6F
$GPGGA,173007.264,4759.212,N,08150.909,W,1,12,1.0,0.0,M,0.0,M,,*7C
$GPGSA,A,3,01,02,03,04,05,06,07,08,09,10,11,12,1.0,1.0,1.0*30
$GPRMC,173007.264,A,4759.212,N,08150.909,W,000.0,000.0,211125,000.0,W*6C
$GPGGA,173007.364,4759.212,N,08150.909,W,1,12,1.0,0.0,M,0.0,M,,*7D
$GPGSA,A,3,01,02,03,04,05,06,07,08,09,10,11,12,1.0,1.0,1.0*30
$GPRMC,173007.364,A,4759.212,N,08150.909,W,000.0,000.0,211125,000.0,W*6D
$GPGGA,173007.464,4759.212,N,08150.909,W,1,12,1.0,0.0,M,0.0,M,,*7A
$GPGSA,A,3,01,02,03,04,05,06,07,08,09,10,11,12,1.0,1.0,1.0*30
$GPRMC,173007.464,A,4759.212,N,08150.909,W,000.0,000.0,211125,000.0,W*6A
$GPGGA,173007.564,4759.212,N,08150.909,W,1,12,1.0,0.0,M,0.0,M,,*7B
$GPGSA,A,3,01,02,03,04,05,06,07,08,09,10,11,12,1.0,1.0,1.0*30
$GPRMC,173007.564,A,4759.212,N,08150.909,W,000.0,000.0,211125,000.0,W*6B
$GPGGA,173007.664,4759.212,N,08150.909,W,1,12,1.0,0.0,M,0.0,M,,*78
$GPGSA,A,3,01,02,03,04,05,06,07,08,09,10,11,12,1.0,1.0,1.0*30
$GPRMC,173007.664,A,4759.212,N,08150.909,W,000.0,000.0,211125,000.0,W*68
$GPGGA,173007.764,4759.212,N,08150.909,W,1,12,1.0,0.0,M,0.0,M,,*79
$GPGSA,A,3,01,02,03,04,05,06,07,08,09,10,11,12,1.0,1.0,1.0*30
$GPRMC,173007.764,A,4759.212,N,08150.909,W,000.0,000.0,211125,000.0,W*69
$GPGGA,173007.864,4759.212,N,08150.909,W,1,12,1.0,0.0,M,0.0,M,,*76
$GPGSA,A,3,01,02,03,04,05,06,07,08,09,10,11,12,1.0,1.0,1.0*30
$GPRMC,173007.864,A,4759.212,N,08150.909,W,000.0,000.0,211125,000.0,W*66
$GPGGA,173007.964,4759.212,N,08150.909,W,1,12,1.0,0.0,M,0.0,M,,*77
$GPGSA,A,3,01,02,03,04,05,06,07,08,09,10,11,12,1.0,1.0,1.0*30
$GPRMC,173007.964,A,4759.212,N,08150.909,W,000.0,000.0,211125,000.0,W*67
$GPGGA,173008.064,4759.212,N,08150.909,W,1,12,1.0,0.0,M,0.0,M,,*71
$GPGSA,A,3,01,02,03,04,05,06,07,08,09,10,11,12,1.0,1.0,1.0*30
$GPRMC,173008.064,A,4759.212,N,08150.909,W,000.0,000.0,211125,000.0,W*61
$GPGGA,173008.164,4759.212,N,08150.909,W,1,12,1.0,0.0,M,0.0,M,,*70
$GPGSA,A,3,01,02,03,04,05,06,07,08,09,10,11,12,1.0,1.0,1.0*30
$GPRMC,173008.164,A,4759.212,N,08150.909,W,000.0,000.0,211125,000.0,W*60
$GPGGA,173008.264,4759.212,N,08150.909,W,1,12,1.0,0.0,M,0.0,M,,*73
$GPGSA,A,3,01,02,03,04,05,06,07,08,09,10,11,12,1.0,1.0,1.0*30
$GPRMC,173008.264,A,4759.212,N,08150.909,W,000.0,000.0,211125,000.0,W*63
$GPGGA,173008.364,4759.212,N,08150.909,W,1,12,1.0,0.0,M,0.0,M,,*72
$GPGSA,A,3,01,02,03,04,05,06,07,08,09,10,11,12,1.0,1.0,1.0*30
$GPRMC,173008.364,A,4759.212,N,08150.909,W,000.0,000.0,211125,000.0,W*62
$GPGGA,173008.464,4759.212,N,08150.909,W,1,12,1.0,0.0,M,0.0,M,,*75
$GPGSA,A,3,01,02,03,04,05,06,07,08,09,10,11,12,1.0,1.0,1.0*30
$GPRMC,173008.464,A,4759.212,N,08150.909,W,000.0,000.0,211125,000.0,W*65
$GPGGA,173008.564,4759.212,N,08150.909,W,1,12,1.0,0.0,M,0.0,M,,*74
$GPGSA,A,3,01,02,03,04,05,06,07,08,09,10,11,12,1.0,1.0,1.0*30
$GPRMC,173008.564,A,4759.212,N,08150.909,W,000.0,000.0,211125,000.0,W*64
$GPGGA,173008.664,4759.212,N,08150.909,W,1,12,1.0,0.0,M,0.0,M,,*77
$GPGSA,A,3,01,02,03,04,05,06,07,08,09,10,11,12,1.0,1.0,1.0*30
$GPRMC,173008.664,A,4759.212,N,08150.909,W,000.0,000.0,211125,000.0,W*67
$GPGGA,173008.764,4759.212,N,08150.909,W,1,12,1.0,0.0,M,0.0,M,,*76
$GPGSA,A,3,01,02,03,04,05,06,07,08,09,10,11,12,1.0,1.0,1.0*30
$GPRMC,173008.764,A,4759.212,N,08150.909,W,000.0,000.0,211125,000.0,W*66
$GPGGA,173008.864,4759.212,N,08150.909,W,1,12,1.0,0.0,M,0.0,M,,*79
$GPGSA,A,3,01,02,03,04,05,06,07,08,09,10,11,12,1.0,1.0,1.0*30
$GPRMC,173008.864,A,4759.212,N,08150.909,W,000.0,000.0,211125,000.0,W*69
$GPGGA,173008.964,4759.212,N,08150.909,W,1,12,1.0,0.0,M,0.0,M,,*78
$GPGSA,A,3,01,02,03,04,05,06,07,08,09,10,11,12,1.0,1.0,1.0*30
$GPRMC,173008.964,A,4759.212,N,08150.909,W,000.0,000.0,211125,000.0,W*68
$GPGGA,173009.064,4759.212,N,08150.909,W,1,12,1.0,0.0,M,0.0,M,,*70
$GPGSA,A,3,01,02,03,04,05,06,07,08,09,10,11,12,1.0,1.0,1.0*30
$GPRMC,173009.064,A,4759.212,N,08150.909,W,000.0,000.0,211125,000.0,W*60
$GPGGA,173009.164,4759.212,N,08150.909,W,1,12,1.0,0.0,M,0.0,M,,*71
$GPGSA,A,3,01,02,03,04,05,06,07,08,09,10,11,12,1.0,1.0,1.0*30
$GPRMC,173009.164,A,4759.212,N,08150.909,W,000.0,000.0,211125,000.0,W*61
$GPGGA,173009.264,4759.212,N,08150.909,W,1,12,1.0,0.0,M,0.0,M,,*72
$GPGSA,A,3,01,02,03,04,05,06,07,08,09,10,11,12,1.0,1.0,1.0*30
$GPRMC,173009.264,A,4759.212,N,08150.909,W,000.0,000.0,211125,000.0,W*62
$GPGGA,173009.364,4759.212,N,08150.909,W,1,12,1.0,0.0,M,0.0,M,,*73
$GPGSA,A,3,01,02,03,04,05,06,07,08,09,10,11,12,1.0,1.0,1.0*30
$GPRMC,173009.364,A,4759.212,N,08150.909,W,000.0,000.0,211125,000.0,W*63
$GPGGA,173009.464,4759.212,N,08150.909,W,1,12,1.0,0.0,M,0.0,M,,*74
$GPGSA,A,3,01,02,03,04,05,06,07,08,09,10,11,12,1.0,1.0,1.0*30
$GPRMC,173009.464,A,4759.212,N,08150.909,W,000.0,000.0,211125,000.0,W*64
$GPGGA,173009.564,4759.212,N,08150.909,W,1,12,1.0,0.0,M,0.0,M,,*75
$GPGSA,A,3,01,02,03,04,05,06,07,08,09,10,11,12,1.0,1.0,1.0*30
$GPRMC,173009.564,A,4759.212,N,08150.909,W,000.0,000.0,211125,000.0,W*65
$GPGGA,173009.664,4759.212,N,08150.909,W,1,12,1.0,0.0,M,0.0,M,,*76
$GPGSA,A,3,01,02,03,04,05,06,07,08,09,10,11,12,1.0,1.0,1.0*30
$GPRMC,173009.664,A,4759.212,N,08150.909,W,000.0,000.0,211125,000.0,W*66
$GPGGA,173009.764,4759.212,N,08150.909,W,1,12,1.0,0.0,M,0.0,M,,*77
$GPGSA,A,3,01,02,03,04,05,06,07,08,09,10,11,12,1.0,1.0,1.0*30
$GPRMC,173009.764,A,4759.212,N,08150.909,W,000.0,000.0,211125,000.0,W*67
$GPGGA,173009.864,4759.212,N,08150.909,W,1,12,1.0,0.0,M,0.0,M,,*78
$GPGSA,A,3,01,02,03,04,05,06,07,08,09,10,11,12,1.0,1.0,1.0*30
$GPRMC,173009.864,A,4759.212,N,08150.909,W,000.0,000.0,211125,000.0,W*68
$GPGGA,173009.964,4759.212,N,08150.909,W,1,12,1.0,0.0,M,0.0,M,,*79
$GPGSA,A,3,01,02,03,04,05,06,07,08,09,10,11,12,1.0,1.0,1.0*30
$GPRMC,173009.964,A,4759.212,N,08150.909,W,000.0,000.0,211125,000.0,W*69
$GPGGA,173010.064,4759.212,N,08150.909,W,1,12,1.0,0.0,M,0.0,M,,*78
$GPGSA,A,3,01,02,03,04,05,06,07,08,09,10,11,12,1.0,1.0,1.0*30
$GPRMC,173010.064,A,4759.212,N,08150.909,W,000.0,000.0,211125,000.0,W*68
$GPGGA,173010.164,4759.212,N,08150.909,W,1,12,1.0,0.0,M,0.0,M,,*79
$GPGSA,A,3,01,02,03,04,05,06,07,08,09,10,11,12,1.0,1.0,1.0*30
$GPRMC,173010.164,A,4759.212,N,08150.909,W,000.0,000.0,211125,000.0,W*69
$GPGGA,173010.264,4759.212,N,08150.909,W,1,12,1.0,0.0,M,0.0,M,,*7A
$GPGSA,A,3,01,02,03,04,05,06,07,08,09,10,11,12,1.0,1.0,1.0*30
$GPRMC,173010.264,A,4759.212,N,08150.909,W,000.0,000.0,211125,000.0,W*6A
$GPGGA,173010.364,4759.212,N,08150.909,W,1,12,1.0,0.0,M,0.0,M,,*7B
$GPGSA,A,3,01,02,03,04,05,06,07,08,09,10,11,12,1.0,1.0,1.0*30
$GPRMC,173010.364,A,4759.212,N,08150.909,W,000.0,000.0,211125,000.0,W*6B
$GPGGA,173010.464,4759.212,N,08150.909,W,1,12,1.0,0.0,M,0.0,M,,*7C
$GPGSA,A,3,01,02,03,04,05,06,07,08,09,10,11,12,1.0,1.0,1.0*30
$GPRMC,173010.464,A,4759.212,N,08150.909,W,000.0,000.0,211125,000.0,W*6C
$GPGGA,173010.564,4759.212,N,08150.909,W,1,12,1.0,0.0,M,0.0,M,,*7D
$GPGSA,A,3,01,02,03,04,05,06,07,08,09,10,11,12,1.0,1.0,1.0*30
$GPRMC,173010.564,A,4759.212,N,08150.909,W,000.0,000.0,211125,000.0,W*6D
$GPGGA,173010.664,4759.212,N,08150.909,W,1,12,1.0,0.0,M,0.0,M,,*7E
$GPGSA,A,3,01,02,03,04,05,06,07,08,09,10,11,12,1.0,1.0,1.0*30
$GPRMC,173010.664,A,4759.212,N,08150.909,W,000.0,000.0,211125,000.0,W*6E
$GPGGA,173010.764,4759.212,N,08150.909,W,1,12,1.0,0.0,M,0.0,M,,*7F
$GPGSA,A,3,01,02,03,04,05,06,07,08,09,10,11,12,1.0,1.0,1.0*30
$GPRMC,173010.764,A,4759.212,N,08150.909,W,000.0,000.0,211125,000.0,W*6F
$GPGGA,173010.864,4759.212,N,08150.909,W,1,12,1.0,0.0,M,0.0,M,,*70
$GPGSA,A,3,01,02,03,04,05,06,07,08,09,10,11,12,1.0,1.0,1.0*30
$GPRMC,173010.864,A,4759.212,N,08150.909,W,000.0,000.0,211125,000.0,W*60
$GPGGA,173010.964,4759.212,N,08150.909,W,1,12,1.0,0.0,M,0.0,M,,*71
$GPGSA,A,3,01,02,03,04,05,06,07,08,09,10,11,12,1.0,1.0,1.0*30
$GPRMC,173010.964,A,4759.212,N,08150.909,W,000.0,000.0,211125,000.0,W*61
$GPGGA,173011.064,4759.212,N,08150.909,W,1,12,1.0,0.0,M,0.0,M,,*79
$GPGSA,A,3,01,02,03,04,05,06,07,08,09,10,11,12,1.0,1.0,1.0*30
$GPRMC,173011.064,A,4759.212,N,08150.909,W,000.0,000.0,211125,000.0,W*69
$GPGGA,173011.164,4759.212,N,08150.909,W,1,12,1.0,0.0,M,0.0,M,,*78
$GPGSA,A,3,01,02,03,04,05,06,07,08,09,10,11,12,1.0,1.0,1.0*30
$GPRMC,173011.164,A,4759.212,N,08150.909,W,000.0,000.0,211125,000.0,W*68
$GPGGA,173011.264,4759.212,N,08150.909,W,1,12,1.0,0.0,M,0.0,M,,*7B
$GPGSA,A,3,01,02,03,04,05,06,07,08,09,10,11,12,1.0,1.0,1.0*30
$GPRMC,173011.264,A,4759.212,N,08150.909,W,000.0,000.0,211125,000.0,W*6B
$GPGGA,173011.364,4759.212,N,08150.909,W,1,12,1.0,0.0,M,0.0,M,,*7A
$GPGSA,A,3,01,02,03,04,05,06,07,08,09,10,11,12,1.0,1.0,1.0*30
$GPRMC,173011.364,A,4759.212,N,08150.909,W,000.0,000.0,211125,000.0,W*6A
$GPGGA,173011.464,4759.212,N,08150.909,W,1,12,1.0,0.0,M,0.0,M,,*7D
$GPGSA,A,3,01,02,03,04,05,06,07,08,09,10,11,12,1.0,1.0,1.0*30
$GPRMC,173011.464,A,4759.212,N,08150.909,W,000.0,000.0,211125,000.0,W*6D
$GPGGA,173011.564,4759.212,N,08150.909,W,1,12,1.0,0.0,M,0.0,M,,*7C
$GPGSA,A,3,01,02,03,04,05,06,07,08,09,10,11,12,1.0,1.0,1.0*30
$GPRMC,173011.564,A,4759.212,N,08150.909,W,000.0,000.0,211125,000.0,W*6C
$GPGGA,173011.664,4759.212,N,08150.909,W,1,12,1.0,0.0,M,0.0,M,,*7F
$GPGSA,A,3,01,02,03,04,05,06,07,08,09,10,11,12,1.0,1.0,1.0*30
$GPRMC,173011.664,A,4759.212,N,08150.909,W,000.0,000.0,211125,000.0,W*6F
$GPGGA,173011.764,4759.212,N,08150.909,W,1,12,1.0,0.0,M,0.0,M,,*7E
$GPGSA,A,3,01,02,03,04,05,06,07,08,09,10,11,12,1.0,1.0,1.0*30
$GPRMC,173011.764,A,4759.212,N,08150.909,W,000.0,000.0,211125,000.0,W*6E
$GPGGA,173011.864,4759.212,N,08150.909,W,1,12,1.0,0.0,M,0.0,M,,*71
$GPGSA,A,3,01,02,03,04,05,06,07,08,09,10,11,12,1.0,1.0,1.0*30
$GPRMC,173011.864,A,4759.212,N,08150.909,W,000.0,000.0,211125,000.0,W*61
$GPGGA,173011.964,4759.212,N,08150.909,W,1,12,1.0,0.0,M,0.0,M,,*70
$GPGSA,A,3,01,02,03,04,05,06,07,08,09,10,11,12,1.0,1.0,1.0*30
$GPRMC,173011.964,A,4759.212,N,08150.909,W,000.0,000.0,211125,000.0,W*60
$GPGGA,173012.064,4759.212,N,08150.909,W,1,12,1.0,0.0,M,0.0,M,,*7A
$GPGSA,A,3,01,02,03,04,05,06,07,08,09,10,11,12,1.0,1.0,1.0*30
$GPRMC,173012.064,A,4759.212,N,08150.909,W,000.0,000.0,211125,000.0,W*6A
$GPGGA,173012.164,4759.212,N,08150.909,W,1,12,1.0,0.0,M,0.0,M,,*7B
$GPGSA,A,3,01,02,03,04,05,06,07,08,09,10,11,12,1.0,1.0,1.0*30
$GPRMC,173012.164,A,4759.212,N,08150.909,W,000.0,000.0,211125,000.0,W*6B
$GPGGA,173012.264,4759.212,N,08150.909,W,1,12,1.0,0.0,M,0.0,M,,*78
$GPGSA,A,3,01,02,03,04,05,06,07,08,09,10,11,12,1.0,1.0,1.0*30
$GPRMC,173012.264,A,4759.212,N,08150.909,W,000.0,000.0,211125,000.0,W*68
$GPGGA,173012.364,4759.212,N,08150.909,W,1,12,1.0,0.0,M,0.0,M,,*79
$GPGSA,A,3,01,02,03,04,05,06,07,08,09,10,11,12,1.0,1.0,1.0*30
$GPRMC,173012.364,A,4759.212,N,08150.909,W,000.0,000.0,211125,000.0,W*69
$GPGGA,173012.464,4759.212,N,08150.909,W,1,12,1.0,0.0,M,0.0,M,,*7E
$GPGSA,A,3,01,02,03,04,05,06,07,08,09,10,11,12,1.0,1.0,1.0*30
$GPRMC,173012.464,A,4759.212,N,08150.909,W,000.0,000.0,211125,000.0,W*6E
$GPGGA,173012.564,4759.212,N,08150.909,W,1,12,1.0,0.0,M,0.0,M,,*7F
$GPGSA,A,3,01,02,03,04,05,06,07,08,09,10,11,12,1.0,1.0,1.0*30
$GPRMC,173012.564,A,4759.212,N,08150.909,W,000.0,000.0,211125,000.0,W*6F
$GPGGA,173012.664,4759.212,N,08150.909,W,1,12,1.0,0.0,M,0.0,M,,*7C
$GPGSA,A,3,01,02,03,04,05,06,07,08,09,10,11,12,1.0,1.0,1.0*30
$GPRMC,173012.664,A,4759.212,N,08150.909,W,000.0,000.0,211125,000.0,W*6C
$GPGGA,173012.764,4759.212,N,08150.909,W,1,12,1.0,0.0,M,0.0,M,,*7D
$GPGSA,A,3,01,02,03,04,05,06,07,08,09,10,11,12,1.0,1.0,1.0*30
$GPRMC,173012.764,A,4759.212,N,08150.909,W,000.0,000.0,211125,000.0,W*6D
$GPGGA,173012.864,4759.212,N,08150.909,W,1,12,1.0,0.0,M,0.0,M,,*72
$GPGSA,A,3,01,02,03,04,05,06,07,08,09,10,11,12,1.0,1.0,1.0*30
$GPRMC,173012.864,A,4759.212,N,08150.909,W,000.0,000.0,211125,000.0,W*62
$GPGGA,173012.964,4759.212,N,08150.909,W,1,12,1.0,0.0,M,0.0,M,,*73
$GPGSA,A,3,01,02,03,04,05,06,07,08,09,10,11,12,1.0,1.0,1.0*30
$GPRMC,173012.964,A,4759.212,N,08150.909,W,000.0,000.0,211125,000.0,W*63
$GPGGA,173013.064,4759.212,N,08150.909,W,1,12,1.0,0.0,M,0.0,M,,*7B
$GPGSA,A,3,01,02,03,04,05,06,07,08,09,10,11,12,1.0,1.0,1.0*30
$GPRMC,173013.064,A,4759.212,N,08150.909,W,000.0,000.0,211125,000.0,W*6B
$GPGGA,173013.164,4759.212,N,08150.909,W,1,12,1.0,0.0,M,0.0,M,,*7A
$GPGSA,A,3,01,02,03,04,05,06,07,08,09,10,11,12,1.0,1.0,1.0*30
$GPRMC,173013.164,A,4759.212,N,08150.909,W,000.0,000.0,211125,000.0,W*6A
$GPGGA,173013.264,4759.212,N,08150.909,W,1,12,1.0,0.0,M,0.0,M,,*79
$GPGSA,A,3,01,02,03,04,05,06,07,08,09,10,11,12,1.0,1.0,1.0*30
$GPRMC,173013.264,A,4759.212,N,08150.909,W,000.0,000.0,211125,000.0,W*69
$GPGGA,173013.364,4759.212,N,08150.909,W,1,12,1.0,0.0,M,0.0,M,,*78
$GPGSA,A,3,01,02,03,04,05,06,07,08,09,10,11,12,1.0,1.0,1.0*30
$GPRMC,173013.364,A,4759.212,N,08150.909,W,000.0,000.0,211125,000.0,W*68
$GPGGA,173013.464,4759.212,N,08150.909,W,1,12,1.0,0.0,M,0.0,M,,*7F
$GPGSA,A,3,01,02,03,04,05,06,07,08,09,10,11,12,1.0,1.0,1.0*30
$GPRMC,173013.464,A,4759.212,N,08150.909,W,000.0,000.0,211125,000.0,W*6F
$GPGGA,173013.564,4759.212,N,08150.909,W,1,12,1.0,0.0,M,0.0,M,,*7E
$GPGSA,A,3,01,02,03,04,05,06,07,08,09,10,11,12,1.0,1.0,1.0*30
$GPRMC,173013.564,A,4759.212,N,08150.909,W,000.0,000.0,211125,000.0,W*6E
$GPGGA,173013.664,4759.212,N,08150.909,W,1,12,1.0,0.0,M,0.0,M,,*7D
$GPGSA,A,3,01,02,03,04,05,06,07,08,09,10,11,12,1.0,1.0,1.0*30
$GPRMC,173013.664,A,4759.212,N,08150.909,W,000.0,000.0,211125,000.0,W*6D
$GPGGA,173013.764,4759.212,N,08150.909,W,1,12,1.0,0.0,M,0.0,M,,*7C
$GPGSA,A,3,01,02,03,04,05,06,07,08,09,10,11,12,1.0,1.0,1.0*30
$GPRMC,173013.764,A,4759.212,N,08150.909,W,000.0,000.0,211125,000.0,W*6C
$GPGGA,173013.864,4759.212,N,08150.909,W,1,12,1.0,0.0,M,0.0,M,,*73
$GPGSA,A,3,01,02,03,04,05,06,07,08,09,10,11,12,1.0,1.0,1.0*30
$GPRMC,173013.864,A,4759.212,N,08150.909,W,000.0,000.0,211125,000.0,W*63
$GPGGA,173013.964,4759.212,N,08150.909,W,1,12,1.0,0.0,M,0.0,M,,*72
$GPGSA,A,3,01,02,03,04,05,06,07,08,09,10,11,12,1.0,1.0,1.0*30
$GPRMC,173013.964,A,4759.212,N,08150.909,W,000.0,000.0,211125,000.0,W*62
$GPGGA,173014.064,4759.212,N,08150.909,W,1,12,1.0,0.0,M,0.0,M,,*7C
$GPGSA,A,3,01,02,03,04,05,06,07,08,09,10,11,12,1.0,1.0,1.0*30
$GPRMC,173014.064,A,4759.212,N,08150.909,W,000.0,000.0,211125,000.0,W*6C
$GPGGA,173014.164,4759.212,N,08150.909,W,1,12,1.0,0.0,M,0.0,M,,*7D
$GPGSA,A,3,01,02,03,04,05,06,07,08,09,10,11,12,1.0,1.0,1.0*30
$GPRMC,173014.164,A,4759.212,N,08150.909,W,000.0,000.0,211125,000.0,W*6D
$GPGGA,173014.264,4759.212,N,08150.909,W,1,12,1.0,0.0,M,0.0,M,,*7E
$GPGSA,A,3,01,02,03,04,05,06,07,08,09,10,11,12,1.0,1.0,1.0*30
$GPRMC,173014.264,A,4759.212,N,08150.909,W,000.0,000.0,211125,000.0,W*6E
$GPGGA,173014.364,4759.212,N,08150.909,W,1,12,1.0,0.0,M,0.0,M,,*7F
$GPGSA,A,3,01,02,03,04,05,06,07,08,09,10,11,12,1.0,1.0,1.0*30
$GPRMC,173014.364,A,4759.212,N,08150.909,W,000.0,000.0,211125,000.0,W*6F
$GPGGA,173014.464,4759.212,N,08150.909,W,1,12,1.0,0.0,M,0.0,M,,*78
$GPGSA,A,3,01,02,03,04,05,06,07,08,09,10,11,12,1.0,1.0,1.0*30
$GPRMC,173014.464,A,4759.212,N,08150.909,W,000.0,000.0,211125,000.0,W*68
$GPGGA,173014.564,4759.212,N,08150.909,W,1,12,1.0,0.0,M,0.0,M,,*79
$GPGSA,A,3,01,02,03,04,05,06,07,08,09,10,11,12,1.0,1.0,1.0*30
$GPRMC,173014.564,A,4759.212,N,08150.909,W,000.0,000.0,211125,000.0,W*69
$GPGGA,173014.664,4759.212,N,08150.909,W,1,12,1.0,0.0,M,0.0,M,,*7A
$GPGSA,A,3,01,02,03,04,05,06,07,08,09,10,11,12,1.0,1.0,1.0*30
$GPRMC,173014.664,A,4759.212,N,08150.909,W,000.0,000.0,211125,000.0,W*6A
$GPGGA,173014.764,4759.212,N,08150.909,W,1,12,1.0,0.0,M,0.0,M,,*7B
$GPGSA,A,3,01,02,03,04,05,06,07,08,09,10,11,12,1.0,1.0,1.0*30
$GPRMC,173014.764,A,4759.212,N,08150.909,W,000.0,000.0,211125,000.0,W*6B
$GPGGA,173014.864,4759.212,N,08150.909,W,1,12,1.0,0.0,M,0.0,M,,*74
$GPGSA,A,3,01,02,03,04,05,06,07,08,09,10,11,12,1.0,1.0,1.0*30
$GPRMC,173014.864,A,4759.212,N,08150.909,W,000.0,000.0,211125,000.0,W*64
$GPGGA,173014.964,4759.212,N,08150.909,W,1,12,1.0,0.0,M,0.0,M,,*75
$GPGSA,A,3,01,02,03,04,05,06,07,08,09,10,11,12,1.0,1.0,1.0*30
$GPRMC,173014.964,A,4759.212,N,08150.909,W,000.0,000.0,211125,000.0,W*65
$GPGGA,173015.064,4759.212,N,08150.909,W,1,12,1.0,0.0,M,0.0,M,,*7D
$GPGSA,A,3,01,02,03,04,05,06,07,08,09,10,11,12,1.0,1.0,1.0*30
$GPRMC,173015.064,A,4759.212,N,08150.909,W,000.0,000.0,211125,000.0,W*6D
$GPGGA,173015.164,4759.212,N,08150.909,W,1,12,1.0,0.0,M,0.0,M,,*7C
$GPGSA,A,3,01,02,03,04,05,06,07,08,09,10,11,12,1.0,1.0,1.0*30
$GPRMC,173015.164,A,4759.212,N,08150.909,W,000.0,000.0,211125,000.0,W*6C
$GPGGA,173015.264,4759.212,N,08150.909,W,1,12,1.0,0.0,M,0.0,M,,*7F
$GPGSA,A,3,01,02,03,04,05,06,07,08,09,10,11,12,1.0,1.0,1.0*30
$GPRMC,173015.264,A,4759.212,N,08150.909,W,000.0,000.0,211125,000.0,W*6F
$GPGGA,173015.364,4759.212,N,08150.909,W,1,12,1.0,0.0,M,0.0,M,,*7E
$GPGSA,A,3,01,02,03,04,05,06,07,08,09,10,11,12,1.0,1.0,1.0*30
$GPRMC,173015.364,A,4759.212,N,08150.909,W,000.0,000.0,211125,000.0,W*6E
$GPGGA,173015.464,4759.212,N,08150.909,W,1,12,1.0,0.0,M,0.0,M,,*79
$GPGSA,A,3,01,02,03,04,05,06,07,08,09,10,11,12,1.0,1.0,1.0*30
$GPRMC,173015.464,A,4759.212,N,08150.909,W,000.0,000.0,211125,000.0,W*69
$GPGGA,173015.564,4759.212,N,08150.909,W,1,12,1.0,0.0,M,0.0,M,,*78
$GPGSA,A,3,01,02,03,04,05,06,07,08,09,10,11,12,1.0,1.0,1.0*30
$GPRMC,173015.564,A,4759.212,N,08150.909,W,000.0,000.0,211125,000.0,W*68
$GPGGA,173015.664,4759.212,N,08150.909,W,1,12,1.0,0.0,M,0.0,M,,*7B
$GPGSA,A,3,01,02,03,04,05,06,07,08,09,10,11,12,1.0,1.0,1.0*30
$GPRMC,173015.664,A,4759.212,N,08150.909,W,000.0,000.0,211125,000.0,W*6B
$GPGGA,173015.764,4759.212,N,08150.909,W,1,12,1.0,0.0,M,0.0,M,,*7A
$GPGSA,A,3,01,02,03,04,05,06,07,08,09,10,11,12,1.0,1.0,1.0*30
$GPRMC,173015.764,A,4759.212,N,08150.909,W,000.0,000.0,211125,000.0,W*6A
$GPGGA,173015.864,4759.212,N,08150.909,W,1,12,1.0,0.0,M,0.0,M,,*75
$GPGSA,A,3,01,02,03,04,05,06,07,08,09,10,11,12,1.0,1.0,1.0*30
$GPRMC,173015.864,A,4759.212,N,08150.909,W,000.0,000.0,211125,000.0,W*65
$GPGGA,173015.964,4759.212,N,08150.909,W,1,12,1.0,0.0,M,0.0,M,,*74
$GPGSA,A,3,01,02,03,04,05,06,07,08,09,10,11,12,1.0,1.0,1.0*30
$GPRMC,173015.964,A,4759.212,N,08150.909,W,000.0,000.0,211125,000.0,W*64
$GPGGA,173016.064,4759.212,N,08150.909,W,1,12,1.0,0.0,M,0.0,M,,*7E
$GPGSA,A,3,01,02,03,04,05,06,07,08,09,10,11,12,1.0,1.0,1.0*30
$GPRMC,173016.064,A,4759.212,N,08150.909,W,000.0,000.0,211125,000.0,W*6E
$GPGGA,173016.164,4759.212,N,08150.909,W,1,12,1.0,0.0,M,0.0,M,,*7F
$GPGSA,A,3,01,02,03,04,05,06,07,08,09,10,11,12,1.0,1.0,1.0*30
$GPRMC,173016.164,A,4759.212,N,08150.909,W,000.0,000.0,211125,000.0,W*6F
$GPGGA,173016.264,4759.212,N,08150.909,W,1,12,1.0,0.0,M,0.0,M,,*7C
$GPGSA,A,3,01,02,03,04,05,06,07,08,09,10,11,12,1.0,1.0,1.0*30
$GPRMC,173016.264,A,4759.212,N,08150.909,W,000.0,000.0,211125,000.0,W*6C
$GPGGA,173016.364,4759.212,N,08150.909,W,1,12,1.0,0.0,M,0.0,M,,*7D
$GPGSA,A,3,01,02,03,04,05,06,07,08,09,10,11,12,1.0,1.0,1.0*30
$GPRMC,173016.364,A,4759.212,N,08150.909,W,000.0,000.0,211125,000.0,W*6D
$GPGGA,173016.464,4759.212,N,08150.909,W,1,12,1.0,0.0,M,0.0,M,,*7A
$GPGSA,A,3,01,02,03,04,05,06,07,08,09,10,11,12,1.0,1.0,1.0*30
$GPRMC,173016.464,A,4759.212,N,08150.909,W,000.0,000.0,211125,000.0,W*6A
$GPGGA,173016.564,4759.212,N,08150.909,W,1,12,1.0,0.0,M,0.0,M,,*7B
$GPGSA,A,3,01,02,03,04,05,06,07,08,09,10,11,12,1.0,1.0,1.0*30
$GPRMC,173016.564,A,4759.212,N,08150.909,W,000.0,000.0,211125,000.0,W*6B
$GPGGA,173016.664,4759.212,N,08150.909,W,1,12,1.0,0.0,M,0.0,M,,*78
$GPGSA,A,3,01,02,03,04,05,06,07,08,09,10,11,12,1.0,1.0,1.0*30
$GPRMC,173016.664,A,4759.212,N,08150.909,W,000.0,000.0,211125,000.0,W*68
$GPGGA,173016.764,4759.212,N,08150.909,W,1,12,1.0,0.0,M,0.0,M,,*79
$GPGSA,A,3,01,02,03,04,05,06,07,08,09,10,11,12,1.0,1.0,1.0*30
